osm_id,code,fclass,name,lon,lat
358779568,2082,school,Ella B Allen-Ann Daly Elementary School,-117.03308,32.65672
358780140,2082,school,Baker Elementary School,-117.10781,32.69811
358781843,2082,school,Central School,-117.10142,32.677
358783753,2082,school,Encanto School,-117.05947,32.71394
358784982,2082,school,Granger Junior High School,-117.07364,32.67255
358785782,2082,school,John A Otis School,-117.09697,32.6695
358786682,2082,school,Johnson Elementary School,-117.07586,32.72005
358786827,2082,school,Keiller Middle School,-117.0434,32.71254
358786854,2082,school,Kempton Street Elementary School,-117.00197,32.71089
358786950,2082,school,Kimball School,-117.10642,32.66589
358787425,2082,school,Las Palmas School,-117.0842,32.67144
358790049,2082,school,Olivewood School,-117.09475,32.66283
358790373,2082,school,Paradise Elementary School,-117.06808,32.67978
358790972,2082,school,Rancho Elementary School,-117.01614,32.7045
358791840,2082,school,Saint Marys School,-117.10142,32.67311
358791932,2082,school,Saint Ritas School,-117.08503,32.70366
358792021,2082,school,San Diego Academy,-117.08058,32.68672
358792024,2082,school,San Diego Christian School,-117.10614,32.69922
358794568,2082,school,Western University,-117.03725,32.71394
358794912,2082,school,Millennial Tech Middle School,-117.08975,32.71755
358795744,2082,school,Balboa Elementary School,-117.10892,32.68672
358807998,2082,school,Doyle Elementary School,-117.09975,32.69561
358845983,2082,school,La Presa Middle School,-117.0053,32.71227
358846130,2082,school,National City Middle School,-117.09892,32.6695
358846145,2082,school,Sweetwater Adult School,-117.09225,32.65922
358846149,2082,school,Valley Vista Elementary School,-117.04836,32.6595
358858580,2082,school,InterAmerican College,-117.10586,32.66813
358860389,2082,school,Cesar Chavez Elementary School,-117.10911,32.6918
358860403,2082,school,Covenant Life Christian Center School,-117.06083,32.71005
358860422,2082,school,Gompers Preparatory Academy,-117.09202,32.71596
358860427,2082,school,Harbison Head Start,-117.07282,32.67854
358860432,2082,school,Highland Head Start,-117.09266,32.66296
358860459,2082,school,Keiller Leadership Academy,-117.04229,32.71233
358860492,2082,school,National City Head Start,-117.07867,32.67424
358860930,2082,school,Paradise Hills Elementary School,-117.0668,32.67982
358860971,2082,school,Tabernacle Christian Academy,-117.08254,32.72396
365319375,2501,supermarket,Foodland Iga #3,-117.08564,32.72098
365319460,2501,supermarket,Foodland Iga #2,-117.0996,32.68272
365319546,2501,supermarket,Food 4 Less Supermarket,-117.08587,32.6602
365319550,2501,supermarket,Albertsons Supermarket,-117.08933,32.65884
365319551,2501,supermarket,Northgate Market,-117.10398,32.69161
365319606,2501,supermarket,Pay-Low Super Market,-117.02729,32.69824
365319644,2501,supermarket,Albertsons,-117.00863,32.70802
365319753,2501,supermarket,Food Giant,-117.08617,32.69631
365319761,2501,supermarket,Ralphs Supermarket,-117.07998,32.68126
365319822,2501,supermarket,Seafood City,-117.09129,32.67514
365319936,2501,supermarket,Big Ben Market,-117.10549,32.67602
365320003,2501,supermarket,Food 4 Less Supermarket,-117.08597,32.70865
365320007,2501,supermarket,Ralphs Supermarket,-117.0389,32.67658
461500599,2303,cafe,Starbucks,-117.02236,32.6692
596595391,2402,motel,National City Motel,-117.10817,32.67807
596850795,2402,motel,Howard Johnson Express Inn National City/San Diego South,-117.10847,32.67773
1610672782,2082,school,San Altos Elementary School,-117.04669,32.72373
4082245997,2303,cafe,Starbucks,-117.10554,32.66066
4937432081,2303,cafe,Donny's Cafe,-117.04304,32.65704
5029543946,2303,cafe,Starbucks,-117.08538,32.70909
5121438322,2501,supermarket,Walmart Supercenter,-117.09933,32.67477
6023791170,2303,cafe,SD Boba Tea,-117.09535,32.67757
6670516969,2303,cafe,Starbucks,-117.09221,32.67718
6758044182,2501,supermarket,Vons,-117.01098,32.71268
6821613416,2303,cafe,Starbucks,-117.0652,32.65424
6846203116,2303,cafe,Freeze Gourmet,-117.06579,32.65509
6846203131,2303,cafe,Starbucks,-117.06551,32.65409
6846203138,2303,cafe,DQ Orange Julius,-117.06515,32.65453
358779429,2082,school,John Adams Elementary School,-117.11889,32.76139
358791881,2082,school,Saint Patricks School,-117.12975,32.74394
358793007,2082,school,Stockton Elementary School,-117.1267,32.70922
358860462,2082,school,King-Chavez Arts Academy,-117.12718,32.71007
358860463,2082,school,King-Chavez Athletics Academy,-117.12718,32.71009
358860465,2082,school,King-Chavez Primary Academy,-117.12718,32.71011
358860637,2012,community_centre,Sunset Temple,-117.13113,32.74869
358860927,2082,school,Our Saviors Preschool,-117.12858,32.75091
365319568,2501,supermarket,Pancho Villa Farmer's Market,-117.12338,32.75459
365320031,2501,supermarket,Market Place #204,-117.11754,32.74952
596332292,2303,cafe,,-117.12625,32.74833
596652716,2501,supermarket,Bine & Vine Bottle Shop,-117.12199,32.76348
596741196,2501,supermarket,Corner Liquor,-117.12154,32.76323
596896179,2501,supermarket,Food Bowl Market,-117.12895,32.72206
597140339,2303,cafe,Swami's Cafe,-117.13088,32.74872
766272338,2303,cafe,Cardomon Café,-117.12974,32.74095
964344366,2501,supermarket,Parkside Foods,-117.12466,32.73907
966307850,2014,arts_centre,Media Arts Center,-117.13099,32.7551
2120440769,2303,cafe,Starbucks,-117.12504,32.74867
2537512371,2303,cafe,Santos Coffee,-117.12524,32.73911
5430496122,2082,school,San Diego Ceramic Connection,-117.12469,32.73934
5876931331,2303,cafe,Starbucks,-117.13116,32.74828
6568756251,2303,cafe,Seven Seas Roasting Company,-117.12914,32.72628
297819169,2303,cafe,Cafe 222,-117.16267,32.71056
365319819,2501,supermarket,Ralph's Signature,-117.16335,32.71211
596782195,2405,hostel,Hostel on 3rd,-117.16223,32.711
596839962,2402,motel,Island Inn,-117.16241,32.71081
1358352500,2303,cafe,The Mission,-117.15299,32.70956
2653019692,2405,hostel,Hostelling International San Diego,-117.15976,32.71133
2965331681,2303,cafe,Starbucks,-117.16341,32.7081
3804296958,2303,cafe,Starbucks,-117.1612,32.71133
4243844506,2303,cafe,Starbucks,-117.15991,32.70764
4474081305,2303,cafe,Copa Vida,-117.15628,32.70925
5026708470,2501,supermarket,Groceries,-117.06303,32.70952
5029882879,2501,supermarket,Food 4 Less,-117.08589,32.7082
5121438621,2501,supermarket,Walmart Neighborhood Market,-117.14442,32.70573
5150995422,2303,cafe,Café de l’Opera,-117.15613,32.70957
5467204545,2303,cafe,Wetzel's Pretzels,-117.17028,32.70858
5467441978,2303,cafe,Frost Me Gourmet Cupcakes,-117.17141,32.70904
5732708129,2082,school,e3 Civic High School,-117.15424,32.70914
358790141,2082,school,Our Lady of Angels School,-117.14392,32.71172
358791293,2082,school,Roosevelt Middle School,-117.15034,32.74026
358845929,2082,school,San Diego Senior High School,-117.1517,32.72061
358846100,2014,arts_centre,San Diego Art Institute,-117.15114,32.73116
358860374,2082,school,Business Senior High School,-117.15231,32.72026
596668033,2012,community_centre,SILO,-117.15009,32.71344
1087784570,2303,cafe,Krakatoa,-117.14057,32.7175
3673414075,2501,supermarket,Smart & Final,-117.15094,32.71291
4114885191,2501,supermarket,Albertsons,-117.15171,32.71167
4727143842,2303,cafe,Starbucks,-117.13407,32.71812
4786156576,2303,cafe,Peet's Coffee,-117.19832,32.73316
4939071321,2303,cafe,Café Grattitude,-117.16962,32.72422
4976609122,2405,hostel,Hostel on 3rd Reception,-117.16211,32.7109
5467204529,2303,cafe,Village Café,-117.16876,32.70884
5467441980,2303,cafe,Seaport Cafe & Fudge Factory,-117.1715,32.70917
5676557122,2303,cafe,Prado Perk,-117.14997,32.73107
5825476431,2303,cafe,Grabbagreen,-117.16244,32.71592
5830011177,2303,cafe,Influx Cafe,-117.14606,32.71592
5831142733,2303,cafe,,-117.15955,32.71131
6016767740,2303,cafe,The West Bean Coffee Roasters,-117.16102,32.73157
6403129585,2303,cafe,Genteel Coffee Co.,-117.15252,32.70961
6579540308,2303,cafe,Daniel's Coffee,-117.14769,32.73389
6769342199,2303,cafe,Cafe Virtuoso,-117.14975,32.70414
6774929703,2303,cafe,Herb & Eatery,-117.17096,32.7272
358792180,2082,school,San Ysidro Academy,-117.04503,32.55756
358860959,2082,school,San Ysidro Center Head Start,-117.04235,32.54754
365319898,2501,supermarket,Albertsons Supermarket,-117.05062,32.55433
3016880269,2303,cafe,Boba n More,-117.04376,32.54335
3016880278,2303,cafe,Wetzel's Pretzels,-117.04404,32.54349
5031104739,2303,cafe,Starbucks,-117.04196,32.54419
358788639,2082,school,Maris Academy,-117.27226,32.84421
358792386,2082,school,Scripps Institution of Oceanography,-117.25406,32.86505
365319706,2501,supermarket,Jonathans Of La Jolla,-117.2741,32.84253
365319764,2501,supermarket,La Jolla Shores Market,-117.25422,32.85357
448041715,2303,cafe,Living Room,-117.27481,32.8476
3245463991,2014,arts_centre,La Jolla Art Association,-117.25488,32.85406
3671212839,2303,cafe,Caroline's Seaside Café by Giuseppe,-117.25416,32.86456
4084670517,2402,motel,Pantai Inn,-117.27568,32.84852
4084670536,2402,motel,Scripps Inn,-117.27889,32.84396
4084670537,2402,motel,Redwood Hollow - La Jolla Cottages,-117.28063,32.84012
5712608721,2303,cafe,Starbucks,-117.27303,32.84872
358782720,2082,school,Crown Point Elementary School,-117.23837,32.7931
358789212,2082,school,Mission Beach School,-117.25115,32.77422
358790211,2082,school,Pacific Beach Middle School,-117.24231,32.80218
358790214,2082,school,Pacific Beach Elementary School,-117.25061,32.80929
358795831,2082,school,Lutheran School,-117.24521,32.80018
358858204,2082,school,Fashion Careers College,-117.20692,32.78094
358860370,2082,school,Bayview Charter School,-117.22424,32.80493
358860470,2082,school,La Jolla United Methodist Church Nursery School,-117.27391,32.82099
358860925,2082,school,Our Lady of Refuge Church School,-117.23825,32.79567
358860944,2082,school,Saint Andrews By The Sea Episcopal Preschool,-117.25042,32.79495
358860952,2082,school,Saint Pauls Lutheran Church School,-117.24561,32.80009
365319366,2501,supermarket,Ralphs Supermarket,-117.2543,32.79423
448035985,2501,supermarket,Henry's,-117.24705,32.79873
448035987,2501,supermarket,Trader Joe's,-117.24777,32.798
448038952,2303,cafe,Brick and Bell Café,-117.25237,32.79848
448039581,2303,cafe,Java Earth Cafe,-117.25452,32.80546
448041512,2303,cafe,Broken Yolk,-117.23602,32.80065
494793095,2501,supermarket,,-117.25609,32.79683
596144161,2402,motel,Trade Winds Motel,-117.21357,32.80093
596150176,2402,motel,Beach Haven Inn,-117.25688,32.79997
596375998,2402,motel,PB Surf Beachside Inn,-117.25697,32.80053
596529655,2402,motel,Sands Of La Jolla,-117.2667,32.81152
596652983,2402,motel,Rodeway Inn San Diego Beach SeaWorld Area,-117.21409,32.8017
596720518,2402,motel,Pacific View Inn,-117.25715,32.79838
596913919,2402,motel,San Diego Motel,-117.21973,32.80714
596978953,2402,motel,Ocean Park Inn,-117.25592,32.79494
597015793,2402,motel,La Jolla Biltmore Motel,-117.26623,32.81104
597172339,2402,motel,Diamond Head Inn,-117.25735,32.79895
735974659,2303,cafe,,-117.24083,32.79909
735982620,2303,cafe,Olive Cafe,-117.25222,32.7825
735982899,2303,cafe,The Boardwalk,-117.25267,32.78265
745973053,2303,cafe,Purple Cafe,-117.25133,32.79522
1637060121,2303,cafe,Juice Bar,-117.25265,32.79472
1719562515,2405,hostel,Banana Bungalow,-117.25542,32.79233
1880985702,2303,cafe,The Mission,-117.25276,32.78464
1880991576,2303,cafe,Fig Tree Cafe,-117.2549,32.80809
1931715106,2303,cafe,Better Buzz Drive Through Coffee,-117.23455,32.80092
2093964923,2303,cafe,Swell Coffee Company,-117.25294,32.78551
4080625092,2303,cafe,Leilani's Cafe,-117.25492,32.80793
4080632389,2303,cafe,Starbucks,-117.24508,32.79875
4084670538,2402,motel,Travelodge La Jolla Beach,-117.27729,32.83002
4084670539,2402,motel,Holiday Inn Express La Jolla,-117.27676,32.82963
4427412311,2012,community_centre,Youth Aquatic Center,-117.21654,32.77771
5425641186,2303,cafe,Koffee Kat,-117.25317,32.80122
5670776245,2303,cafe,99 Cups of Coffee,-117.25276,32.79985
6119560491,2501,supermarket,Trader Joe's,-117.24068,32.80087
6309979928,2303,cafe,Starbucks,-117.23815,32.80178
6309979931,2303,cafe,Konito's Cafe,-117.23829,32.80211
6781787367,2303,cafe,Linda's Donuts,-117.23511,32.79932
358779608,2082,school,Alpine Elementary School,-116.77422,32.8381
358792318,2082,school,Santa Ysabel School,-116.71474,33.08143
358793846,2082,school,United States Navy Survival Training School,-116.64585,33.28948
358794340,2082,school,Warner Elementary School,-116.6428,33.2742
358801726,2082,school,Mesa Grande School,-116.77891,33.18782
358802372,2082,school,Julian High School,-116.5953,33.07699
358844973,2082,school,James Dukes Elementary School,-116.79225,33.00838
358844982,2082,school,Julain Elementary School,-116.59506,33.07852
358844983,2082,school,Julian Junior High School,-116.59376,33.07873
358845001,2082,school,Ray Redding Continuation High School,-116.59502,33.07727
358845844,2082,school,Descanso Elementary  School,-116.61363,32.85894
358845862,2082,school,Pine Valley Elementary School,-116.52613,32.82033
358845879,2082,school,Alpine Country Day School,-116.78113,32.83477
358845883,2082,school,Alpine Union Alternative Education School,-116.77425,32.83859
358845893,2082,school,Joan MacQueen Middle School,-116.8178,32.83061
358845902,2082,school,Shadow Hills School,-116.81641,32.83227
365319724,2501,supermarket,Alpine Ranch Market,-116.75444,32.83501
365319834,2501,supermarket,Dons Market,-116.67568,33.10939
596548609,2402,motel,Villa De Valor - Hildreth House,-116.60036,33.07844
597186250,2402,motel,Eaglenest Bed and Breakfast,-116.59906,33.07681
2572521837,2405,hostel,Julian Lodge,-116.60122,33.07699
4653448554,2303,cafe,,-117.32022,33.12506
2822331647,2303,cafe,Sweet Tides,-117.22721,32.76448
2822331650,2303,cafe,Seaside Coffee & Bakery,-117.22715,32.76453
2822332682,2303,cafe,Fish Tacos,-117.22348,32.7656
2822332683,2303,cafe,Stir Fry,-117.22527,32.76552
2822332684,2303,cafe,Crepes,-117.22669,32.76518
3551806097,2303,cafe,Pineapple Pete's Island Eats,-117.22617,32.76543
5315597532,2501,supermarket,Walmart Neighborhood Market,-117.00772,32.7751
5335879547,2501,supermarket,Trader Joe's,-117.0703,32.77179
5700006322,2303,cafe,Starbucks,-117.26983,32.814
5862273354,2303,cafe,Lestat's on Park,-117.14642,32.75893
5866338934,2303,cafe,Starbucks,-116.95638,32.78013
5866348475,2303,cafe,Starbucks,-116.95638,32.78013
6016781034,2303,cafe,Up2You Cafe,-117.15911,32.80148
6148511998,2501,supermarket,Grocery Outlet,-117.08031,32.79171
6311992974,2501,supermarket,Vons,-117.03234,32.78243
6340769490,2303,cafe,BCB Coffee,-117.0702,32.77699
6340769491,2303,cafe,BCB Coffee,-117.07336,32.77246
6407789695,2303,cafe,Better Buzz Coffee Roasters,-117.25252,32.7836
6407793007,2303,cafe,Soulshine,-117.25355,32.78614
6491570532,2303,cafe,Starbucks,-117.11517,32.80853
6545136885,2303,cafe,Starbucks,-117.13942,32.77176
6754101358,2501,supermarket,Vons,-117.11657,32.80727
358782966,2082,school,Del Mar Heights Elementary School,-117.26318,32.95268
358791716,2082,school,Saint James Academy,-117.26365,32.95504
358845021,2082,school,Carmel del Mar Elementary School,-117.22908,32.94064
358858208,2082,school,National University,-117.2432,32.9097
365319549,2501,supermarket,Harvest Ranch Market #4,-117.26486,32.95948
596642223,2082,school,Torrey Hills Elementary School,-117.22335,32.91386
597023433,2110,hospital,Feel Beautiful Plastic Surgery,-117.22666,32.90624
597029453,2303,cafe,Pacific Cafe and Catering,-117.23695,32.92708
597187832,2303,cafe,Corner House Cafe and Pizzeria,-117.23669,32.91613
1699122435,2303,cafe,Caliente Mexican Grill,-117.23665,32.91628
2127109487,2501,supermarket,Jimbo's Naturally,-117.23301,32.95087
2128414560,2303,cafe,Starbucks,-117.23195,32.93912
2148537625,2303,cafe,Bruegger's,-117.21402,32.9204
2148537626,2303,cafe,Starbucks,-117.21415,32.92042
2184863603,2303,cafe,Nico's Taco Shop,-117.23263,32.93806
2245212431,2303,cafe,Come On In Cafe,-117.23332,32.91946
2337700062,2303,cafe,Starbucks,-117.26498,32.95938
2822090155,2303,cafe,O'Brien's Boulangerie,-117.2462,32.9511
3658498524,2303,cafe,Cedar Grille and Cafe,-117.23083,32.93741
3658507338,2303,cafe,Starbucks,-117.23184,32.95304
3781751307,2303,cafe,NY Garden Deli,-117.22905,32.91705
3781751308,2303,cafe,Torrey Gardens Cafe,-117.22599,32.91343
4483048917,2303,cafe,Starbucks,-117.24668,32.95144
4483048918,2303,cafe,Starbucks,-117.24703,32.94998
358793858,2082,school,University of California - San Diego,-117.23784,32.88059
445986877,2501,supermarket,Sunshine Market,-117.23602,32.87966
445989125,2303,cafe,Fairbanks,-117.23703,32.87649
446001460,2303,cafe,The Art of Espresso,-117.23917,32.87763
446001531,2303,cafe,Fairbanks,-117.23739,32.87802
446001571,2303,cafe,perks,-117.23702,32.87933
469084066,2303,cafe,Cups Coffee Cart,-117.2342,32.88177
492010431,2303,cafe,Fairbanks,-117.2403,32.88373
642966853,2303,cafe,Fairbanks Coffee Company,-117.23445,32.88097
792163040,2014,arts_centre,Villa Musica,-117.21753,32.89308
1912313370,2501,supermarket,The Village Market,-117.2421,32.8876
2477260305,2303,cafe,Cliff Hanger Cafe,-117.25126,32.88992
3384930954,2303,cafe,Fairbanks Coffee Stand,-117.24067,32.87496
3384976135,2303,cafe,Muir Coffee House,-117.24266,32.87876
3385340434,2303,cafe,Peet's Coffee and Tea,-117.2405,32.88598
3385340435,2303,cafe,Yogurt World,-117.23591,32.87922
4022670997,2081,university,School of Global Policy and Strategy,-117.24137,32.8841
4148017990,2303,cafe,Starbucks,-117.23645,32.88004
5579387431,2303,cafe,Starbucks,-117.17234,32.90702
273539682,2501,supermarket,Bristol Farms,-117.2151,32.86751
273593057,2501,supermarket,Ralphs,-117.23206,32.86652
273593515,2501,supermarket,Trader Joe's,-117.23241,32.86564
274191517,2501,supermarket,Sprouts Farmers Market,-117.21448,32.85163
274358074,2303,cafe,Tapioca Express,-117.22472,32.86277
276540129,2303,cafe,The Daily Bagel,-117.22447,32.86273
277840055,2303,cafe,Pete's Coffee and Tea,-117.23103,32.86941
358793548,2082,school,Torrey Pines Elementary School,-117.2442,32.85894
477129022,2303,cafe,Starbucks,-117.2104,32.87075
1344113515,2303,cafe,Starbucks,-117.21566,32.8516
1354441411,2303,cafe,Starbucks,-117.23215,32.86603
1496094385,2303,cafe,Starbucks,-117.21744,32.87284
1557782993,2303,cafe,Starbucks,-117.21542,32.86971
1699040910,2303,cafe,Peet's Coffee,-117.21264,32.87347
2334975016,2303,cafe,Elixir Espresso Bar,-117.20971,32.87173
2374248726,2303,cafe,Nordstrom Cafe,-117.21176,32.87225
2698559989,2303,cafe,Micheline's Pita House,-117.21781,32.87337
6307565490,2110,hospital,Dr Glynn Bolitho,-117.21435,32.87376
358846272,2082,school,Bonita Vista Middle School,-117.00641,32.64783
365319685,2501,supermarket,Ralphs Supermarket,-117.0014,32.6447
365319972,2501,supermarket,Ralphs Supermarket,-117.02504,32.61575
5316300409,2303,cafe,Starbucks,-117.03642,32.5773
6150664715,2303,cafe,Starbucks,-117.02648,32.61485
6371394318,2303,cafe,Tapioca Express,-117.00197,32.64544
6926988877,2501,supermarket,Aldi,-117.03508,32.59344
358784248,2082,school,Foster Elementary School,-117.08364,32.79199
358785450,2082,school,Hardy Elementary School,-117.0793,32.77167
358789574,2082,school,Muir Alternative Loop School,-117.04947,32.77033
358791945,2082,school,Saint Therese Academy,-117.06503,32.79449
358809499,2082,school,American Language Institute,-117.07187,32.77305
358845473,2082,school,National University,-117.10586,32.77755
358860472,2082,school,Language Academy,-117.06189,32.76837
358860484,2082,school,Miller Charter School,-117.10691,32.81784
358860485,2082,school,Montezuma Charter School,-117.06059,32.7685
365319922,2501,supermarket,Ralphs Supermarket,-117.05438,32.76924
596152000,2402,motel,Harvey's Motel,-117.04344,32.76912
596739128,2402,motel,La Petite Rouge Motel,-117.05066,32.76899
596869572,2402,motel,Days Inn Mission Valley,-117.0843,32.78167
597145469,2402,motel,Zephyr,-117.09955,32.78018
761881884,2501,supermarket,Windmill Farms,-117.05964,32.78393
1616177865,2303,cafe,Starbucks,-117.07365,32.77728
2131074759,2303,cafe,Starbucks,-117.06971,32.77152
3298795387,2501,supermarket,Aztec Market & Convenience Store,-117.07036,32.77566
3329381630,2501,supermarket,Aztec Market & Convenience Store,-117.06804,32.77246
3329382027,2501,supermarket,Aztec Market,-117.06996,32.77357
3329382030,2303,cafe,Starbucks,-117.07016,32.774
4806675077,2303,cafe,BCB Coffee Company,-117.07211,32.77426
5093522484,2082,school,Canyon View Children's Center,-117.07413,32.7931
5721506672,2303,cafe,Cream,-117.06962,32.77222
6558365500,2501,supermarket,Primo Market,-117.0986,32.83904
6632119408,2082,school,Bright Horizons Preschool,-117.10089,32.84052
6636189269,2303,cafe,Starbucks,-117.10173,32.82219
6786403113,2501,supermarket,Smart & Final,-117.10105,32.82109
358781849,2082,school,Central Elementary School,-117.10756,32.75104
358782645,2082,school,Crawford Senior High School,-117.07531,32.75283
358790172,2082,school,Our Lady of Mercy School,-117.07753,32.7345
358791324,2082,school,Rosary High School,-117.1042,32.75227
358792132,2082,school,San Miguel Elementary School,-117.0467,32.73477
358808854,2110,hospital,Crestwood Behavioral Health San Diego,-117.07666,32.74934
358858306,2082,school,Platt College - San Diego,-117.06394,32.76361
358860371,2082,school,Blessed Sacrament School,-117.07402,32.75971
358860400,2082,school,Cornerstone Christian Academy,-117.07988,32.75801
358860414,2082,school,Euclid Charter School,-117.09425,32.75214
358860444,2082,school,Invention and Design Educational Academy,-117.07679,32.75293
358860474,2082,school,Law and Business Senior High School,-117.07679,32.75293
358860489,2082,school,Multimedia and Visual Arts School Senior High School,-117.07679,32.75293
358860926,2082,school,Our Lady of the Sacred Heart Catholic Church School,-117.10472,32.75182
365319369,2501,supermarket,Minute Mart,-117.08652,32.75715
365319383,2501,supermarket,Food Center Market,-117.09406,32.75524
365319710,2501,supermarket,Albertsons Supermarket,-117.04523,32.74365
365319757,2501,supermarket,Food 4 Less Supermarket,-117.06816,32.75088
368168769,2083,kindergarten,Our Lady of the Sacred Heart Catholic Church Day Care Center,-117.10472,32.75182
596132928,2402,motel,Travel Time Motel,-117.07779,32.7578
596399685,2402,motel,Navajo Lodge,-117.07357,32.75836
1917449807,2303,cafe,Kensington Cafe,-117.10613,32.76309
5962205153,2303,cafe,Starbucks,-117.05612,32.74214
358860491,2082,school,Museum School,-117.16297,32.73241
596919059,2303,cafe,Moe Coffee,-117.16997,32.73132
6390065486,2303,cafe,Oscar’s seafood,-117.15911,32.74867
358791865,2082,school,Saint Michaels School,-117.05837,32.99588
358845115,2082,school,Mount Woodson Elementary School,-116.95759,33.03242
358845122,2082,school,Poway Adult School,-117.03564,32.97895
358845256,2082,school,Highland Ranch Elementary School,-117.07157,32.98439
358845273,2110,hospital,Palomar Medical Center Poway,-117.05595,32.99682
358845279,2082,school,Rancho Bernardo Middle School,-117.06114,32.9981
358860433,2082,school,Hope Christian Preschool,-117.07632,33.01479
358860932,2082,school,Penasquitos Christian Preschool,-117.09219,32.97859
365319785,2501,supermarket,Albertsons Supermarket,-117.06152,33.0178
365355815,2303,cafe,Starbucks,-117.08027,33.03317
368167507,2014,arts_centre,Poway Performing Arts Center,-117.0242,32.99782
596429698,2501,supermarket,Ralphs,-117.07565,32.98105
596762082,2303,cafe,Starbucks,-117.08375,32.97918
596943098,2501,supermarket,Trader Joe's,-117.07499,32.98201
1576266143,2303,cafe,Fresh Donuts & Coffee,-117.0239,32.9778
1743954596,2303,cafe,Starbucks,-117.06194,33.01781
2397160584,2303,cafe,Pegasus Cafe,-117.07493,33.01735
2397160618,2303,cafe,Peet's Coffee,-117.07344,33.02117
4687993643,2303,cafe,Starbucks,-117.0737,33.01797
6469345185,2501,supermarket,Barons Market,-117.07576,33.02376
6758166095,2303,cafe,Mostra Coffee,-117.07562,32.9832
358845162,2082,school,Alliant International University - San Diego,-117.09309,32.89755
358860488,2082,school,Mount Olive Lutheran Preschool,-117.02342,32.95838
358860936,2082,school,Poway Christian School,-117.06282,32.95886
365356499,2303,cafe,The Coffee Bean & Tea Leaf: Home,-117.06567,32.95188
596073226,2082,school,Dingeman Elementary School,-117.09125,32.93345
596900052,2303,cafe,Starbucks,-117.06138,32.93441
1586571056,2501,supermarket,Smart & Final,-117.06365,32.95072
1741084518,2082,school,Eucalyptus Hills Elementary School,-116.94659,32.89169
2087943955,2303,cafe,Starbucks,-117.06751,32.95135
2126642451,2303,cafe,Refresh Coffee,-117.09318,32.96314
2132823953,2303,cafe,The Point Café,-117.09468,32.96224
3886102508,2303,cafe,Starbucks,-117.08976,32.9664
5567726400,2303,cafe,Starbucks,-117.09929,32.93573
6376734885,2303,cafe,Industrial Grind Coffee,-117.09846,32.84025
6469313786,2303,cafe,House of Black,-117.08424,32.94532
358791632,2082,school,Saint Columbia School,-117.13324,32.80435
358858180,2082,school,Maric College - San Diego,-117.1349,32.82141
358858346,2082,school,University of Phoenix - Kearny Mesa Campus,-117.11672,32.81424
358860977,2082,school,Wegeforth Charter School,-117.13382,32.80537
2611713101,2303,cafe,Anny's Fine Burger,-117.13848,32.83109
5176524044,2303,cafe,The Daily Bagel,-117.1279,32.83197
6377007362,2303,cafe,Cibao Cafe,-117.12642,32.82182
6388055760,2303,cafe,Bear Buns Bakery And Cafe,-117.13966,32.80198
358794669,2082,school,Whittier School,-117.19733,32.80377
358860407,2082,school,Del Sol Academy,-117.19803,32.8034
358860458,2082,school,John Muir School,-117.19415,32.82376
365319538,2501,supermarket,Harvest International Market,-117.2001,32.81255
1396671720,2303,cafe,Starbucks,-117.2006,32.8114
1459148835,2303,cafe,Starbucks,-117.20478,32.8296
1459173602,2303,cafe,Arely,-117.20267,32.83203
358787662,2082,school,Libby Elementary School,-117.30559,33.2517
358789202,2082,school,Miracosta College,-117.30226,33.19004
358844462,2082,school,Del Rio Elementary School,-117.28698,33.25753
358844502,2082,school,Pacifica Elementary School,-117.30365,33.2567
358844528,2082,school,Reynolds Elementary School,-117.30948,33.25865
358844588,2082,school,Hope Elementary School,-117.30475,33.17084
358844590,2082,school,Kelly Elementary School,-117.3117,33.14754
358844626,2082,school,Alamosa Park Elementary School,-117.28226,33.24226
358844641,2082,school,Casita Center for Technology Science and Math,-117.28476,33.18976
365319442,2501,supermarket,Sprout's,-117.29118,33.24444
365319802,2501,supermarket,Albertsons Supermarket,-117.29636,33.1796
365319879,2501,supermarket,Ralphs Supermarket,-117.28169,33.20798
1947135229,2303,cafe,Starbucks,-117.28547,33.20753
2527037590,2303,cafe,La Costa Coffee Roasting,-117.26818,33.10444
3545464485,2303,cafe,Granny's Apple Fries,-117.31122,33.12917
4459692287,2303,cafe,Starbucks,-117.30772,33.23155
5691960270,2303,cafe,Starbucks,-117.30078,33.25081
5692108221,2303,cafe,Starbucks,-117.29363,33.24059
5897490397,2303,cafe,Starbucks,-117.31386,33.12127
6154580956,2082,school,Sage Creek High School,-117.28545,33.15758
6862304743,2303,cafe,Primos Pizza & Pasta,-117.31108,33.10167
358783221,2082,school,Alvin M Dunn Elementary School,-117.20365,33.14337
358792114,2082,school,San Marcos Middle School,-117.17564,33.14686
358844592,2082,school,Lake Elementary School,-117.25281,33.17032
358844594,2082,school,Madison Middle School,-117.25695,33.17396
358844705,2082,school,San Marcos Unified Alternative-Foothills High School,-117.15851,33.18011
358844747,2082,school,Maric College - North County,-117.22059,33.17254
358844751,2082,school,Paloma Elementary School,-117.17503,33.15337
358844819,2082,school,Rancho Buena Vista High School,-117.2467,33.16115
358858629,2082,school,San Diego Golf Academy,-117.24987,33.15787
365319670,2501,supermarket,Ralphs,-117.25438,33.17255
365319926,2501,supermarket,Albertsons Supermarket,-117.24809,33.16683
365356857,2303,cafe,Starbucks,-117.21451,33.16882
596579057,2082,school,San Marcos Institute of Religion,-117.18672,33.1492
921662787,2501,supermarket,Stater Brothers,-117.21897,33.16205
921662789,2303,cafe,Starbucks,-117.2186,33.16276
979963129,2082,school,Hannalei Elementary School,-117.21666,33.17834
1288533960,2303,cafe,Starbucks,-117.24172,33.14632
2718534581,2303,cafe,Starbucks,-117.24815,33.16667
3285181415,2303,cafe,Starbucks,-117.16516,33.13144
3285182372,2501,supermarket,Ralph's,-117.16673,33.13066
4043009089,2501,supermarket,Sprouts Farmers Market,-117.1907,33.14052
4045152499,2084,college,California College San Diego,-117.16097,33.13833
4045168347,2303,cafe,Starbucks,-117.19149,33.14252
4045225201,2303,cafe,Starbucks,-117.20659,33.13176
4045684689,2501,supermarket,WinCo Foods,-117.17632,33.13511
4045763092,2501,supermarket,San Marcos Market,-117.16584,33.14361
4045827429,2303,cafe,Starbucks,-117.19828,33.14931
4047987278,2303,cafe,Starbucks,-117.15951,33.12876
4048122405,2081,university,CSUSM,-117.15999,33.12824
5275798527,2501,supermarket,Aldi,-117.21518,33.17226
5907182465,2303,cafe,Starbucks,-117.26054,33.13082
358844885,2082,school,La Costa Meadows Elementary School,-117.24115,33.10337
4041558783,2501,supermarket,Albertsons,-117.19967,33.09691
4066097117,2303,cafe,Perks Coffee House,-117.16534,33.12292
4229138712,2303,cafe,Peet's Coffee,-117.25408,33.12677
358792147,2082,school,San Pasqual Union School,-116.98031,33.08893
358845135,2082,school,San Pasqual Academy,-116.94808,33.08726
596101488,2303,cafe,Mila's Centre City Cafe,-117.07155,33.08781
1404154787,2303,cafe,Starbucks,-117.07032,33.07087
6561971820,2303,cafe,Lion Camp Slush and Snacks,-116.9981,33.09737
6561971847,2303,cafe,,-116.99767,33.09566
358783066,2082,school,Ditmar Elementary School,-117.36809,33.18531
358786511,2082,school,Jefferson Junior High School,-117.36337,33.21031
358787480,2082,school,Laurel Elementary School,-117.37337,33.20754
358787702,2082,school,Lincoln Middle School,-117.35115,33.18948
358789248,2082,school,Mission Elementary School,-117.36254,33.20781
358789840,2082,school,North Terrace Elementary School,-117.37865,33.21726
358790304,2082,school,Palmquist Elementary School,-117.35087,33.18781
358791855,2082,school,Saint Marys Star of the Sea School,-117.37198,33.18865
358792103,2082,school,San Luis Rey Academy,-117.31782,33.23198
358792258,2082,school,Santa Margarita School,-117.37816,33.23265
358844615,2082,school,San Rafael Elementary School,-117.38504,33.21309
358844648,2082,school,Clair W Burgener Elementary School,-117.36115,33.20837
358844665,2082,school,First Presbyterian Pre-School,-117.32893,33.19198
358844713,2082,school,South Oceanside Elementary School,-117.35724,33.17738
365319507,2501,supermarket,Ralphs Supermarket,-117.36054,33.19255
365319565,2501,supermarket,VONS Supermarket,-117.3612,33.19041
596075574,2402,motel,,-117.36143,33.17478
638750049,2303,cafe,Seabreeze Cafe,-117.3833,33.19504
1009389193,2303,cafe,Starbucks,-117.34067,33.18273
1009389232,2501,supermarket,Trader Joe's,-117.33188,33.18403
2794026329,2501,supermarket,Walmart Neighborhood Market,-117.3749,33.19972
3392152988,2303,cafe,Pier View Coffee Company,-117.38186,33.19599
4616962671,2402,motel,Best Western Oceanside Inn,-117.36431,33.18967
5041985370,2303,cafe,El Picnic Tabel,-117.34676,33.23247
5691960271,2303,cafe,Starbucks,-117.33143,33.22639
358860367,2082,school,All Saints Preschool,-117.20535,32.85342
1258976224,2082,school,Marie Curie Elementary School,-117.20218,32.85514
1477147272,2303,cafe,Wired Cafe & Bistro,-117.20602,32.86774
1925716451,2303,cafe,Starbucks,-117.20316,32.89369
2205114854,2303,cafe,Opera Cafe & Patisserie,-117.20181,32.89116
2205114860,2303,cafe,Sher E Punjab,-117.20175,32.89101
2573988504,2303,cafe,On a Roll,-117.20268,32.89211
358780249,2082,school,Bancroft Community School,-117.00753,32.72977
358781113,2082,school,Brier Patch School,-117.00336,32.78227
358782106,2082,school,Christian School,-117.03225,32.7395
358782244,2082,school,former Grover Cleveland Elementary School (until 1983),-117.01243,32.79682
358784227,2082,school,Forward School,-117.01863,32.79923
358784870,2082,school,Golden Avenue Elementary School,-117.02947,32.74172
358788322,2082,school,Christ Lutheran School,-117.02818,32.76618
358788748,2082,school,Maryland Avenue Elementary School,-117.03836,32.77616
358789515,2082,school,Mount Vernon Elementary School,-117.02104,32.73233
358789608,2082,school,Murray Manor Elementary School,-117.0197,32.78791
358790151,2082,school,Our Lady of Grace School,-117.00364,32.80338
358790276,2082,school,Palm Middle School,-117.01908,32.73422
358791526,2082,school,Saint Andrews School,-117.01058,32.76727
358791734,2082,school,Saint John of the Cross School,-117.02392,32.74505
358791834,2082,school,Saint Martins Academy,-117.03114,32.7695
358792906,2082,school,Spring Valley Elementary School,-117.00247,32.74915
358860376,2082,school,Calvary Chapel La Mesa Church School,-117.03568,32.76827
358860939,2082,school,Red Balloon Preschool and Day Care Center,-117.023,32.74142
358860949,2082,school,Saint Martin of Tours Academy,-117.03161,32.76902
358860950,2082,school,Saint Martins Catholic Church Preschool,-117.03127,32.76905
365319451,2501,supermarket,Ralphs Supermarket,-117.00552,32.77196
365319534,2501,supermarket,Vons,-117.02429,32.76532
365319676,2501,supermarket,Vine Ripe Market,-117.01975,32.77606
365319739,2501,supermarket,Food 4 Less Supermarket,-117.03759,32.74371
365320010,2501,supermarket,Albertsons,-117.01308,32.80169
368167493,2014,arts_centre,La Mesa Memorial Fine Arts Center,-117.02392,32.767
566465920,2303,cafe,Lightbulb Coffee,-117.02156,32.76424
566469227,2303,cafe,Public Square Coffee House,-117.01957,32.76492
566480334,2303,cafe,Jitter's,-117.02122,32.7639
596806022,2402,motel,Travelodge La Mesa,-117.02737,32.76365
596998929,2402,motel,La Mesa Lodge,-117.02569,32.76928
726925190,2501,supermarket,Trader Joe's,-117.00573,32.77914
2230082350,2303,cafe,Starbucks,-117.02629,32.7707
2232296054,2303,cafe,Starbucks,-117.00636,32.80297
4153493201,2402,motel,Heritage Inn La Mesa,-117.02788,32.7733
4153493202,2402,motel,Motel 6 San Diego - La Mesa,-117.03318,32.77301
4153493203,2402,motel,National 9 Inn,-117.01538,32.7656
5323140284,2303,cafe,Peet's Coffee,-117.00554,32.81594
358779422,2082,school,Academy of our Lady of Peace,-117.13559,32.76505
358784607,2082,school,Garfield High School,-117.13455,32.75879
358858171,2082,school,Foundation College of San Diego,-117.16117,32.76132
358858410,2082,school,Remington College - San Diego Campus,-117.16382,32.76526
358860419,2082,school,Garfield Charter School,-117.13468,32.75826
358860420,2082,school,Garfield Elementary School,-117.13525,32.75885
469598335,2303,cafe,Monica's at the Park,-117.14664,32.76236
596342390,2402,motel,La Quinta Inn & Suites San Diego SeaWorld/Zoo Area,-117.15844,32.76319
956194756,2014,arts_centre,Athenaeum School of Art,-117.14607,32.7583
1337466853,2303,cafe,Lestat's Coffee House,-117.122,32.76323
1499582477,2303,cafe,Twigg's Coffee House,-117.14645,32.76083
1834884860,2303,cafe,Starbucks,-117.16834,32.74962
1974495834,2303,cafe,Starbucks,-117.15237,32.74871
2093970097,2303,cafe,Mystic Mocha Cafe,-117.14236,32.75937
2108758096,2303,cafe,Cairo Lounge Cafe (Cairo's),-117.1166,32.76317
3160079279,2303,cafe,Prince Hookah Cafe,-117.06711,32.76246
3814732568,2303,cafe,Terrace Café,-117.16847,32.76362
3814732569,2303,cafe,Starbucks,-117.1684,32.76378
4153256355,2402,motel,Holiday Inn Express & Suites San Diego - Hotel Circle,-117.16921,32.75935
4153256356,2402,motel,Hotel Iris,-117.16913,32.76016
4153256357,2402,motel,Super 8 San Diego Hotel Circle,-117.16636,32.76012
4153493204,2402,motel,Days Inn La Mesa Suites - San Diego,-117.03617,32.76766
4153510550,2402,motel,Howard Johnson Inn San Diego State University Area,-117.06043,32.76562
4860112476,2303,cafe,Starbucks,-117.16629,32.76774
5430484522,2501,supermarket,Baron’s,-117.12422,32.74837
5891465778,2303,cafe,Better Buzz,-117.157,32.74811
5970691016,2501,supermarket,Valley Farm Market,-117.00192,32.75181
6077525836,2303,cafe,JoyBrewed Espresso,-117.15142,32.74826
6580589333,2303,cafe,Starbucks,-116.94092,32.74021
6612505909,2303,cafe,Dark Horse Coffee Roasters,-117.12337,32.76351
358844558,2082,school,Borrego Springs High School,-116.38307,33.26476
1829326108,2501,supermarket,Center Market,-116.38001,33.25756
4668875549,2303,cafe,Calico's,-116.38023,33.256
6356646240,2303,cafe,Kendall's Cafe,-116.3801,33.25568
356204202,2082,school,Toussaint Academy San Diego,-117.16033,32.7201
358781457,2082,school,California Western University,-117.16267,32.72217
358791770,2082,school,Saint Joseph School,-117.16364,32.72144
358793668,2082,school,New School of Architecture,-117.15503,32.71394
358845935,2082,school,Associated Technical College,-117.15892,32.72061
358845954,2082,school,San Diego City Free School,-117.16253,32.72366
358858174,2082,school,Newschool of Architecture and Design,-117.15339,32.71337
358860396,2082,school,Communication Investigations in a Multicultural Atmosphere Senior High School,-117.15354,32.7201
358860402,2082,school,Cortez Hill Academy,-117.16319,32.71891
358860443,2082,school,International Studies Senior High School,-117.15358,32.72
358860466,2082,school,KIPP Adelante Preparatory Academy,-117.15918,32.72091
358860476,2082,school,Learn Explore Achieve Discover and Serve Senior High School,-117.15357,32.72006
358860483,2082,school,Media Visual and Performing Arts Senior High School,-117.15351,32.71994
358860956,2082,school,San Diego High Educational Complex Senior High School,-117.15345,32.72022
358860964,2082,school,Science and Technology Senior High School,-117.15361,32.72018
365320043,2501,supermarket,Popular Grocery,-117.15348,32.7151
365357212,2303,cafe,Corner Bakery Cafe,-117.16361,32.71551
530764099,2501,supermarket,Mona Lisa,-117.16911,32.72626
565498560,2303,cafe,Starbucks,-117.16883,32.71597
596548401,2084,college,Associated Barber College,-117.16002,32.7193
597193316,2405,hostel,R.K. Hostel,-117.16847,32.72693
662733224,2402,motel,Motel 6,-117.16328,32.72144
1709525387,2402,motel,,-117.17301,32.72857
1894049496,2303,cafe,Influx,-117.16877,32.72448
1914632090,2303,cafe,Caffe Italia,-117.16844,32.72319
1952127071,2303,cafe,Central Cafe,-117.16213,32.71851
3666681783,2303,cafe,Starbucks,-117.16168,32.71451
3802355523,2303,cafe,,-117.1603,32.71387
3802360901,2303,cafe,Simon Says Coffee,-117.16045,32.71372
3884002233,2501,supermarket,The Market By Buon Appetito,-117.16803,32.72228
3884002234,2303,cafe,Tazza D'Oro,-117.16803,32.72221
3884008812,2303,cafe,Cafe Zucchero,-117.16817,32.72344
3884019756,2303,cafe,Juice Crafters - Little Italy,-117.16855,32.72354
3884039545,2012,community_centre,Little Italy Association,-117.16931,32.72775
3884039864,2501,supermarket,Little Brazil Market,-117.16892,32.72588
3884044603,2303,cafe,Starbucks,-117.16953,32.72618
3884045602,2501,supermarket,Assenti's Pasta,-117.16942,32.72594
3884055360,2303,cafe,Bird Rock Coffee Roasters,-117.17089,32.72797
3884058549,2303,cafe,James Coffee Co,-117.17037,32.72907
4384364891,2303,cafe,coffee bean & tea leaf,-117.16453,32.71589
4619739567,2303,cafe,Dark Horse Coffee Roasters,-117.1401,32.71392
4944488121,2303,cafe,Lofty Coffee & co.,-117.16728,32.72207
5466998785,2303,cafe,Starbucks,-117.17056,32.71036
5467540147,2303,cafe,Cat Cafe,-117.16221,32.71029
6069729722,2110,hospital,,-117.16912,32.72951
365319952,2501,supermarket,Albertsons,-116.87709,33.03925
2494029701,2303,cafe,Starbucks,-116.87655,33.03953
5411921480,2501,supermarket,Ramona Family Naturals Grocery Store,-116.86208,33.04477
358801881,2082,school,Pauma Elementary School,-117.00086,33.31503
358801888,2082,school,Pauma Valley School,-117.00058,33.31531
358844548,2082,school,Sullivan Middle School,-117.17253,33.29642
1291744296,2012,community_centre,Cupa Cultural Center,-117.07537,33.36586
4064423805,2501,supermarket,Pala Mesa Market,-117.16209,33.33261
6568879785,2084,college,Palomar College - Fallbrook Education Center,-117.15652,33.35396
358786018,2082,school,Holy Family School,-117.1692,32.78005
358787854,2082,school,Linda Vista Elementary School,-117.17365,32.79302
358788062,2082,school,Longfellow Elementary School,-117.18899,32.78348
358789384,2082,school,Montgomery Junior High School,-117.17212,32.78775
358858099,2082,school,Pacific College of Oriental Medicine,-117.16003,32.77943
358858261,2082,school,California College - San Diego,-117.13186,32.771
358858681,2084,college,The Art Institute of California - San Diego,-117.15542,32.77827
358860386,2082,school,Carson Charter School,-117.17098,32.77668
358860963,2082,school,School of the Madeleine,-117.19881,32.7793
365319379,2501,supermarket,Vien Dong Iii,-117.16978,32.7845
365319397,2501,supermarket,Ralphs,-117.15543,32.77588
1741590963,2303,cafe,Starbucks,-117.12957,32.77997
2249641959,2303,cafe,Starbucks,-117.14974,32.77071
2429753714,2501,supermarket,Stehly Farms Market,-117.20169,32.77147
2643307118,2303,cafe,The Coffee Corner,-117.17324,32.77518
2643307119,2083,kindergarten,The Vine,-117.1732,32.7753
2660475358,2081,university,Founders Hall,-117.19183,32.77161
2660475359,2081,university,Camino Hall,-117.19281,32.77143
2660475365,2303,cafe,Aromas,-117.19013,32.77209
2985490712,2501,supermarket,Sprouts Farmers Market,-117.19253,32.7944
5646055731,2501,supermarket,Trader Joe's,-117.15523,32.76617
5936112465,2303,cafe,Sharetea,-117.19597,32.76596
6056052722,2303,cafe,Sweet Labors,-117.15539,32.79837
358781210,2082,school,Buena Vista Elementary School,-117.34226,33.16976
358786525,2082,school,Jefferson Elementary School,-117.33893,33.15254
358788450,2082,school,Magnolia Elementary School,-117.32695,33.15898
358790614,2082,school,Pine Elementary School,-117.34226,33.15837
358844565,2082,school,Carlsbad High School,-117.32773,33.16297
358844680,2082,school,La Palma High School,-117.34254,33.15698
1536024778,2303,cafe,French Cafe,-117.34278,33.16174
2499734716,2303,cafe,Vinaka Cafe,-117.35076,33.15942
4444757089,2303,cafe,The Daily News Café,-117.35109,33.15793
4868157697,2303,cafe,Chocolate Bar,-117.34866,33.15974
4924752401,2303,cafe,Carlsbad Coffee House,-117.35305,33.16102
316542113,2501,supermarket,Ralphs,-117.15462,32.74958
316549942,2501,supermarket,Sprouts Farmers Market,-117.1459,32.75331
358784134,2082,school,Florence Elementary School,-117.16415,32.74853
358786521,2082,school,Jefferson Elementary School,-117.13364,32.74755
358790409,2082,school,Parker School,-117.17643,32.75407
358791755,2082,school,Saint Johns School,-117.14801,32.75127
358791970,2082,school,Saint Vincents School,-117.17341,32.75072
358860366,2082,school,All Saints Episcopal School,-117.1585,32.74498
358860496,2082,school,North Park Elementary School,-117.13526,32.75133
365319372,2501,supermarket,Smart & Final,-117.1404,32.74811
561103966,2303,cafe,Peet's Coffee,-117.162,32.74846
561107739,2303,cafe,Peet's Coffee,-117.162,32.74846
595974855,2402,motel,Berkshire Motor Hotel,-117.13738,32.75565
1834875861,2303,cafe,The Coffee Bean,-117.16365,32.75006
1834885268,2303,cafe,Starbucks,-117.17031,32.75001
1974494879,2501,supermarket,Trader Joe's,-117.15398,32.74976
1974494884,2303,cafe,Starbucks,-117.1538,32.74952
1974497233,2501,supermarket,Whole Foods Market,-117.15809,32.7482
6193798833,2303,cafe,Lestat's,-117.15459,32.74825
358791118,2082,school,Richland Elementary School,-117.14059,33.15504
365319393,2501,supermarket,Albertsons,-117.13841,33.14001
365319668,2501,supermarket,Albertsons Supermarket,-117.10586,33.10879
767623005,2303,cafe,Starbucks,-117.08531,33.12128
1095773680,2501,supermarket,Smart & Final,-117.08777,33.12247
1446003019,2501,supermarket,Sprouts Farmers Market,-117.08065,33.10809
1558767368,2402,motel,Mt. Vernon Inn,-117.09185,33.12708
1931214293,2303,cafe,Starbucks,-117.09404,33.1416
4044860294,2303,cafe,Yum YumDonouts,-117.1308,33.13704
4044921555,2303,cafe,Starbucks,-117.12112,33.13541
4045113003,2084,college,UEI College,-117.11833,33.13147
4065299373,2303,cafe,Starbucks,-117.10092,33.11287
5307577019,2083,kindergarten,Children's Paradise,-117.10555,33.14836
6758421876,2014,arts_centre,"Center for the Performing Arts, Escondido",-117.09276,33.14037
358846354,2082,school,Burton C Tiffany Elementary School,-116.99083,32.64552
358846368,2082,school,Eastlake Elementary School,-116.98447,32.65589
365319447,2501,supermarket,Vons,-116.96646,32.6458
2643088444,2082,school,Arroyo Vista Elementary School,-116.95346,32.6387
2643089819,2082,school,Salt Creek Elementary School,-116.94868,32.64771
2645046056,2501,supermarket,Trader Joe's,-116.97068,32.65226
2645046476,2501,supermarket,Sprouts Farmers Market,-116.9701,32.65075
4243794241,2082,school,Olympic View Elementary School,-116.9652,32.63784
4848250729,2303,cafe,Starbucks,-116.96677,32.6481
6711322038,2082,school,KidVentures Montessori Academy,-116.95407,32.6533
6711322047,2303,cafe,Vega Caffe,-116.95497,32.65171
6744651813,2303,cafe,Lollicup Tea Zone,-116.99668,32.64465
358781694,2082,school,Castle Park Senior High School,-117.05697,32.6145
358782822,2082,school,Daly Center Educational Center,-117.05781,32.63172
358785868,2082,school,Hilltop Middle School,-117.06058,32.63061
358791752,2082,school,Saint John's Episcopal Parish Day School,-117.06578,32.62701
358791920,2082,school,Saint Pius X School,-117.05503,32.61644
358860923,2082,school,Otay Head Start,-117.06901,32.59783
358860929,2082,school,Palomar Head Start,-117.07028,32.60486
4976462380,2303,cafe,Starbucks,-117.05839,32.64814
358779627,2082,school,Alta School,-116.97114,32.56796
596940883,2082,school,Mater Dei Catholic High School,-116.97555,32.62125
4243825127,2082,school,Otay Ranch Academy for the Arts,-116.97664,32.62223
4243844330,2501,supermarket,Vons,-116.9609,32.61966
6215376898,2303,cafe,BNCafe,-116.96619,32.62457
6312015620,2082,school,Math4U,-116.97002,32.6233
6312015623,2303,cafe,Taqueria Revolución,-116.9701,32.62327
6327910641,2082,school,Kids on the Go,-116.96439,32.62339
6327910657,2303,cafe,Deli Fruits,-116.9704,32.6233
6355766023,2303,cafe,Starbucks,-116.96594,32.62859
6355766036,2303,cafe,Tapioca Express,-116.96512,32.62861
6541206904,2012,community_centre,The Hub,-116.96802,32.62383
6689257901,2082,school,Saburo Muraoka,-116.99228,32.61436
6721897798,2303,cafe,Happy Lemon,-116.96214,32.62118
358787306,2082,school,Lakeside Farms Elementary School,-116.93697,32.86672
358787316,2082,school,Lakeside Middle School,-116.93836,32.85459
358787890,2082,school,Lindo Park Elementary School,-116.91503,32.85949
358790177,2082,school,Our Lady of Perpetual Help School,-116.90892,32.85949
358845625,2082,school,Carlton Oaks Elementary School,-117.01392,32.84422
358845709,2082,school,Lakeside Baptist School,-116.93169,32.85644
358845710,2082,school,Lakeside Union School District Education Center,-116.92503,32.85644
358845779,2082,school,Cajon Park Satellite School,-116.97169,32.86283
358845798,2082,school,Giles Education Center,-116.98169,32.85283
358845805,2082,school,Hill Creek Elementary School,-116.96197,32.85255
358845824,2082,school,Rio Seco Elementary School,-116.98225,32.85144
358845828,2082,school,Santee School District Education Center,-116.98169,32.85338
358845898,2082,school,Santee Elementary School,-116.97031,32.83783
365319679,2501,supermarket,Food 4 Less Supermarket,-116.98535,32.8481
365319831,2501,supermarket,Albertsons Supermarket,-116.93192,32.851
365319948,2501,supermarket,Albertsons Supermarket,-116.97221,32.85662
596016608,2501,supermarket,Walmart,-116.99031,32.84231
596730416,2082,school,Foothills Elementary,-116.90567,32.86247
597045670,2501,supermarket,Sprouts Farmers Market,-116.99359,32.83758
2104968795,2303,cafe,Kaffee Meister - Santee Coffeehouse,-116.99762,32.84451
4906689732,2303,cafe,,-117.22691,32.8709
5482911498,2012,community_centre,La Jolla Community Center,-117.27607,32.83078
6326367361,2303,cafe,Starbucks,-117.25384,32.85115
6689629041,2303,cafe,Peet's Coffee,-117.20673,32.86753
6801427059,2303,cafe,,-117.22563,32.8786
6801427084,2303,cafe,The Cove,-117.22572,32.87775
6016767743,2303,cafe,Starbucks,-117.16048,32.73111
6071178230,2303,cafe,Starbucks,-117.05599,32.74217
6467117823,2303,cafe,Creme De La Crepe,-117.16355,32.74838
6553896395,2303,cafe,Cafe Madeleine,-117.13034,32.72953
6899520585,2501,supermarket,Grocery Outlet,-117.08026,32.75607
358845044,2012,community_centre,Mira Mesa Park and Recreation Center,-117.1415,32.91315
358845112,2082,school,San Diego Miramar College,-117.11892,32.90755
358845172,2082,school,West Coast University,-117.11976,32.89949
358860368,2082,school,Audeo School,-117.18437,32.90332
358860387,2082,school,Charter School of San Diego,-117.18312,32.90544
358860423,2082,school,Good Shepherd Catholic Church School,-117.14754,32.90555
358860424,2082,school,Grace Preschool,-117.13002,32.91644
358860477,2082,school,Learning Choice Academy,-117.11103,32.91146
358860974,2082,school,TRACE School,-117.126,32.90556
358860975,2082,school,Twain Mesa Satellite School,-117.14051,32.90925
365319386,2501,supermarket,Seafood City,-117.13152,32.91371
365319431,2501,supermarket,Lucky Seafood Supermarket,-117.12427,32.91895
365319474,2501,supermarket,Ralphs Supermarket,-117.12245,32.9181
365319642,2501,supermarket,Vinh-Hung Supermarket,-117.14555,32.90925
596640120,2303,cafe,Cafeteria,-117.19415,32.90336
596667155,2501,supermarket,Albertsons,-117.12206,32.91549
1451194434,2501,supermarket,H-Mart,-117.12236,32.91876
2219884307,2501,supermarket,Trader Joe's,-117.11499,32.9143
2697242257,2082,school,Jonas Salk Elementary School,-117.15549,32.90595
3046966112,2501,supermarket,The Kebab Shop,-117.12198,32.91888
3281421016,2012,community_centre,Epicentre Youth Center,-117.14151,32.91307
3284816296,2303,cafe,Starbucks,-117.12088,32.91543
3284863398,2303,cafe,Starbucks,-117.11369,32.93773
4084670501,2402,motel,Extended Stay America - San Diego - Sorrento Mesa,-117.18998,32.89837
4933000855,2303,cafe,Starbucks,-117.14257,32.91305
4933000867,2303,cafe,Ding Tea,-117.14601,32.91466
4933000870,2501,supermarket,Sprouts Farmers Market,-117.14808,32.91448
5737498534,2303,cafe,Cafe Seven,-117.18827,32.90024
6117157306,2303,cafe,Snowy Village Dessert Cafe,-117.14622,32.91444
358858498,2084,college,Design Institute of San Diego,-117.16747,32.8803
358860429,2082,school,Hawthorne Charter School,-117.18723,32.83989
596175711,2303,cafe,Winchell's Doughnut House,-117.16689,32.87882
597040091,2405,hostel,,-117.18732,32.85144
1422728967,2303,cafe,Starbucks,-117.16467,32.87907
4858620552,2083,kindergarten,Chinese Bilingual Preschool,-117.12622,32.82839
5256718794,2303,cafe,Feel Good Coffee Cart,-117.12627,32.82042
358783977,2082,school,Mae L Feaster Elementary School,-117.09725,32.64144
358791935,2082,school,Saint Rose of Lima School,-117.07725,32.63505
358846720,2082,school,Chula Vista Adult School-Del Rey Center,-117.07336,32.61367
358858328,2084,college,Pima Medical Institute,-117.09492,32.62383
358860393,2082,school,Christian Academy of Chula Vista,-117.089,32.64256
358860933,2082,school,Pilgrim Lutheran School,-117.08923,32.64279
358860968,2082,school,South Bay Community Preschool and Day Care Center,-117.07952,32.61614
365319358,2501,supermarket,Albertsons Supermarket,-117.0756,32.62648
365319815,2501,supermarket,Food 4 Less Supermarket,-117.08294,32.60265
365319941,2501,supermarket,Garden Farms Market,-117.08387,32.64365
365319961,2501,supermarket,Hometown Iga #2,-117.09558,32.64017
596377200,2501,supermarket,PESCADOS Y MARISCOS,-117.08005,32.60831
4777310796,2501,supermarket,Sprouts Farmers Market,-117.07511,32.62765
5310744822,2501,supermarket,Aldi,-117.08942,32.65087
5315599564,2501,supermarket,Walmart,-117.09429,32.65188
5870511684,2084,college,UEI College,-117.08018,32.64088
5872926371,2012,community_centre,,-117.08174,32.63814
6405180165,2303,cafe,Starbucks,-117.08669,32.63057
6509755206,2303,cafe,Starbucks,-117.08689,32.65031
6678199484,2501,supermarket,Smart & Final,-117.08982,32.65195
6691788573,2303,cafe,Sweet Cloud Creamery,-117.08704,32.63049
358781869,2082,school,Learning Tree School,-117.27045,32.99485
358784575,2082,school,Garden School,-117.27337,32.99004
358845065,2082,school,Beth Am Preschool,-117.2617,32.9906
358845066,2082,school,Bridges-A-Learning Center,-117.26148,32.99334
358845070,2082,school,Child Development Center,-117.27099,32.99586
358845150,2082,school,Solano Santa Fe Elementarty School,-117.23726,32.98116
365319438,2501,supermarket,Albertsons Supermarket,-117.24915,32.97905
596165449,2082,school,Horizon Prep,-117.19867,32.9976
597073603,2504,mall,The Boardwalk Mall,-117.27264,32.99408
619527650,2303,cafe,T's Cafe,-117.27262,32.99455
2184571267,2303,cafe,Solana Beach Fish House,-117.27003,32.99251
2547660007,2303,cafe,Lockwood Table Cafe,-117.26923,32.9882
2579029991,2303,cafe,Starbucks,-117.25449,32.9954
3648092138,2303,cafe,The Coffee Bean,-117.24982,32.97904
358783956,2082,school,Fallbrook High School,-117.24142,33.34892
358790510,2082,school,Mary Fay Pendleton Elementary School,-117.30531,33.32503
358790811,2082,school,Potter Junior High School,-117.22198,33.36836
358801159,2082,school,De Luz Elementary School,-117.3192,33.44225
358844487,2082,school,Ivy High School,-117.2367,33.35059
358844491,2082,school,Live Oak Elementary School,-117.22059,33.37003
358844540,2082,school,Saint Peters Catholic School,-117.22698,33.37531
358844543,2082,school,Saint Stephen Evangelical Lutheran School,-117.22948,33.38725
365319590,2501,supermarket,El Tigre Foods Warehouse,-117.24982,33.36848
1066791124,2501,supermarket,IGA Daniel's Market,-117.22164,33.29544
1250244862,2501,supermarket,Major Market Grocery Store,-117.25286,33.37538
1250248790,2303,cafe,Main Street Cafe,-117.25159,33.37813
1250252220,2083,kindergarten,,-117.25518,33.37739
1250252221,2083,kindergarten,,-117.25557,33.38003
5266775210,2501,supermarket,Grocery Outlet,-117.24982,33.36873
5733058545,2501,supermarket,Apple Tree Supermarket,-117.25044,32.74669
5744889476,2303,cafe,,-117.24956,32.74575
5744897620,2303,cafe,The Lazy Hummingbird,-117.25175,32.74896
5745809000,2303,cafe,Azúcar,-117.24787,32.7451
5745929174,2303,cafe,OB Garden Café,-117.24243,32.74921
5746612577,2501,supermarket,Olive Tree Market,-117.24931,32.74298
5747730534,2303,cafe,The Lazy Hummingbird,-117.24859,32.74378
6479932889,2303,cafe,Mitch's Seafood,-117.22682,32.72468
6561907685,2012,community_centre,Ocean Beach Recreation Center,-117.24556,32.74496
6775497979,2501,supermarket,Jensen's Foods,-117.24546,32.72176
358844875,2082,school,Flora Vista Elementary School,-117.2535,33.05614
358844884,2082,school,La Costa Heights Elementary School,-117.2434,33.07997
358844895,2082,school,Mira Costa Community College San Elijo Campus,-117.25866,33.01777
358844896,2082,school,Mission Estancia Elementary School,-117.24014,33.07233
358844914,2082,school,Rancho Santa Fe Elementary School,-117.2067,33.02115
365319914,2501,supermarket,Gelson's Markets,-117.26707,33.08732
365319956,2501,supermarket,Harvest Ranch Market #2,-117.23819,33.03563
451964738,2501,supermarket,Sprouts Farmers Market,-117.23878,33.07496
451964757,2303,cafe,Coffee Bean and Tea Leaf,-117.26588,33.0726
451964784,2303,cafe,Starbucks,-117.26528,33.06849
596629814,2082,school,Leport Schools,-117.26925,33.0446
619045738,2501,supermarket,Sprouts Farmers Market,-117.26078,33.04479
619534740,2303,cafe,Original Pancake House,-117.23857,33.03675
619534742,2303,cafe,Champagne Cafe & Bakery,-117.23844,33.0356
619558580,2303,cafe,Santa Fe Café,-117.26024,33.04733
619558581,2303,cafe,Broken Yolk,-117.26794,33.08584
959817084,2303,cafe,Starbucks,-117.26819,33.08587
2353016526,2303,cafe,Peet's Coffee & Tea,-117.25582,33.04763
2407427694,2303,cafe,Necter Juice Bar,-117.25799,33.04811
3932988148,2501,supermarket,Walmart Supercenter,-117.26631,33.06918
4769781732,2083,kindergarten,Christ Presbyterian Preschool,-117.23885,33.07993
4912920340,2303,cafe,Starbucks,-117.23349,33.08233
5162321021,2501,supermarket,,-117.26506,33.07186
473390084,2082,school,,-116.89954,33.34094
358784420,2082,school,Fremont Elementary School,-117.19343,32.75034
358858193,2082,school,Thomas Jefferson School of Law,-117.18947,32.74641
358860399,2082,school,Connections School,-117.19489,32.75092
530766844,2303,cafe,Gelato Vera,-117.181,32.74322
596095808,2402,motel,Western Inn & Suites,-117.19454,32.74971
1268135106,2402,motel,Mission Inn,-117.19248,32.74932
1710764148,2402,motel,Motel 6,-117.18608,32.76031
1868215365,2303,cafe,Starbucks,-117.19709,32.76495
2810280295,2303,cafe,old town's gourmet cafe,-117.19397,32.75177
2810283283,2303,cafe,Korky's,-117.19327,32.75078
3166096649,2303,cafe,Starbucks,-117.1968,32.73192
4153510552,2402,motel,Holiday Inn Express San Diego Airport - Old Town,-117.18761,32.74534
4378037889,2303,cafe,Congress Café & Market Place,-117.19737,32.75281
4786156574,2303,cafe,Starbucks,-117.20114,32.73163
4786156575,2303,cafe,Ryan Bros. Coffee,-117.19833,32.73233
5547219098,2303,cafe,Java Joe's,-117.19701,32.75267
6050320539,2303,cafe,Rubicon Deli,-117.18064,32.74279
6568829925,2504,mall,Grosvernor Square,-117.20637,32.7509
596088300,2082,school,Solana Santa Fe,-117.19206,32.9969
596588905,2082,school,Mt. Carmel High School,-117.12043,32.96745
2116972443,2303,cafe,Starbucks,-117.1073,32.95124
3660082804,2303,cafe,Jersey Mike's Subs,-117.12626,32.95676
3886102520,2303,cafe,Starbucks,-117.12494,32.95843
5866330335,2082,school,Oak Valley Middle School,-117.10936,33.00042
6296732577,2303,cafe,Bad Ass Coffee,-117.11492,32.96037
540009229,2501,supermarket,Ralphs,-117.11274,33.01915
540009233,2501,supermarket,Jimbo's,-117.11384,33.01886
551064550,2303,cafe,The Coffee Bean,-117.11063,33.01985
596178812,2082,school,Maranatha Christian Schools,-117.13691,33.02379
5866319195,2082,school,Del Sur Elementary,-117.14073,33.01841
5866470188,2501,supermarket,Sprouts Farmers Market,-117.12354,33.0197
6744125888,2303,cafe,Starbucks,-117.12529,33.02126
6744125889,2303,cafe,Choice Juicery,-117.12512,33.02125
6757862951,2303,cafe,Swami's Cafe,-117.1237,33.02059
6758618578,2303,cafe,Donut Touch,-117.11043,33.01591
6758618580,2303,cafe,Starbucks,-117.11094,33.016
358781571,2082,school,Cardiff Elementary School,-117.28345,33.02509
358783762,2082,school,Paul Ecke Central Elementary School,-117.29702,33.05745
358785474,2082,school,Ada W Harris Elementary School,-117.27432,33.03139
358790235,2082,school,Pacific View Elementary School,-117.29587,33.04393
358791745,2082,school,Saint John School,-117.29809,33.05476
358844848,2082,school,Capri Elementary School,-117.28837,33.07532
358844930,2082,school,San Dieguito Union Alternative Education School,-117.27697,33.04387
368173835,2504,mall,Cardiff-By-The-Sea Towne Centre Shopping Center,-117.28226,33.02227
596398987,2402,motel,Quality Inn,-117.29084,33.06472
619529675,2303,cafe,Potato Shack,-117.29358,33.03954
619532113,2303,cafe,Panniken,-117.29958,33.05831
1865215931,2303,cafe,Coffee Coffee,-117.30295,33.06566
2268978100,2303,cafe,Moonlight Beach Deli & Dogs,-117.28405,33.04866
2331415425,2501,supermarket,Smart and Final extra!,-117.2822,33.04653
2822105950,2303,cafe,Haggo's Organic Taco,-117.30386,33.06818
2973709870,2501,supermarket,Whole Foods Market,-117.29321,33.04375
3660008217,2303,cafe,Betty's Pie Whole,-117.27946,33.04806
3952878373,2501,supermarket,El Nopalito,-117.28015,33.03702
4049210635,2303,cafe,Better Buzzed Coffee Roasters,-117.2939,33.04493
4624291750,2082,school,Eli Howard Surf School,-117.28409,33.02119
4629690759,2501,supermarket,Seaside Market,-117.28208,33.02201
4629690775,2303,cafe,Starbucks,-117.2823,33.02201
4629923898,2303,cafe,Acai Cafe,-117.28246,33.0222
4654147576,2303,cafe,Swami's Cafe,-117.29213,33.03699
358789915,2082,school,Oak Hill Elementary School,-117.05031,33.13087
358790093,2082,school,Orange Glen Elementary School,-117.03559,33.14532
358793996,2082,school,Valley Center Middle School,-117.02083,33.23653
358800880,2082,school,Bear Valley School,-116.97058,33.17532
358844748,2082,school,Nicolaysen Center,-117.03698,33.14365
358844951,2082,school,Valley Center Elementary School,-117.02225,33.23531
358844953,2082,school,Valley Center Primary School,-117.0217,33.24087
358858267,2082,school,Westminster Theological Seminary in California,-117.04715,33.12262
365319363,2501,supermarket,Albertsons,-117.05952,33.13185
365319547,2501,supermarket,Ralphs Supermarket,-117.0429,33.14068
368173700,2012,community_centre,Valley Center Community Center,-117.03911,33.22145
596929357,2082,school,Palomar Driving School,-117.07648,33.10979
1809707850,2501,supermarket,Major Market,-117.07521,33.10093
1809707852,2303,cafe,Starbucks,-117.07503,33.10175
1999508500,2501,supermarket,Trader Joe's,-117.07472,33.10007
3143013738,2084,college,Palomar College,-117.05187,33.13703
5315596632,2501,supermarket,Walmart,-117.06298,33.13014
5315598924,2501,supermarket,Walmart Neighborhood Market,-117.06297,33.13007
358786838,2082,school,Karl H Kellogg Elementary School,-117.04836,32.62033
358845965,2082,school,Clear View Elementary School,-117.04614,32.64144
6023836052,2012,community_centre,Loma Verde Recreation Center,-117.04908,32.60244
6173692918,2303,cafe,Tapioca Express,-117.04105,32.60512
6173692919,2303,cafe,Filipino Desserts Plus,-117.04102,32.60507
6656081468,2303,cafe,Vanitea,-117.0396,32.62909
6983561861,2303,cafe,Starbucks,-117.03978,32.6291
274193121,2501,supermarket,Sprouts Farmers Market,-117.1837,32.82428
358794678,2082,school,Wiggin School,-117.18699,32.82025
358860495,2082,school,New Dawn at Riley School,-117.17954,32.80925
358860940,2082,school,Reformation Lutheran School,-117.17255,32.82795
358860941,2082,school,Riley Special Education School,-117.17888,32.80925
1868227670,2303,cafe,Starbucks,-117.18173,32.81998
1884458542,2501,supermarket,Balboa International Market,-117.178,32.81892
2699563696,2303,cafe,Starbucks,-117.18734,32.83475
3042704038,2303,cafe,85°C Bakery,-117.18042,32.81957
3293918425,2303,cafe,Big Island Coffee,-117.17418,32.82006
5296448671,2501,supermarket,Home,-117.18224,32.8036
358780415,2082,school,Bayside Elementary School,-117.11281,32.58894
358791615,2082,school,Saint Charles School,-117.09447,32.58033
358846735,2082,school,Los Altos Elementary School,-117.0503,32.572
358860439,2082,school,Imperial Beach Christian School,-117.1081,32.58499
358860473,2082,school,Latter Rain Missions and Training Center,-117.10628,32.58304
358860494,2082,school,Nestor Head Start,-117.08225,32.57273
358860946,2082,school,Saint Jerome School of Religion,-117.07095,32.58329
365319491,2501,supermarket,El Tigre Warehouse,-117.0702,32.57603
5423850579,2303,cafe,Trident,-117.10574,32.58741
6630276287,2303,cafe,Tapioca Express,-117.03879,32.58475
6630276292,2303,cafe,U Dessert Eats,-117.03924,32.58471
6645053461,2501,supermarket,Grocery Outlet,-117.11545,32.58362
6645053464,2303,cafe,Starbucks,-117.11558,32.58354
6704999969,2303,cafe,Starbucks,-117.06115,32.58469
358780939,2082,school,Bobier Elementary School,-117.24726,33.22031
358790036,2082,school,Olive Elementary School,-117.2603,33.20361
358791675,2082,school,Saint Francis School,-117.25345,33.19638
358792251,2082,school,Vista Academy of Visual and Performing Arts,-117.24754,33.2092
358794239,2082,school,Vista Christian School,-117.24837,33.21698
358794244,2082,school,,-117.23784,33.2008
358794362,2082,school,Washington Middle School,-117.25772,33.20357
358844517,2082,school,Rawhide Christian School,-117.22976,33.2667
358844831,2082,school,Alta Vista High School,-117.21948,33.22254
358844840,2082,school,California Avenue Elementary School,-117.2467,33.20809
358844906,2082,school,Palomar Continuation High School,-117.21948,33.22254
358844935,2082,school,Sierra Vista High School,-117.24115,33.22115
365319984,2501,supermarket,Food 4 Less Supermarket,-117.25094,33.19287
596997283,2082,school,General Raymond Murray High School,-117.25509,33.19898
597187625,2303,cafe,Lush Lounge,-117.24112,33.2032
845627280,2501,supermarket,Frazier Farms,-117.24593,33.1977
845627283,2303,cafe,Starbucks,-117.24467,33.20104
966939885,2082,school,Vista High School,-117.24024,33.22303
967401491,2082,school,Vista Magnet Middle School,-117.23792,33.20328
967425930,2082,school,Guajome Park Academy,-117.25022,33.22943
967626945,2501,supermarket,Stater Bros.,-117.24342,33.22034
4048140686,2501,supermarket,Albertsons,-117.22441,33.21852
4048142877,2303,cafe,Starbucks,-117.22567,33.21924
4064247595,2303,cafe,Starbucks,-117.25385,33.19231
5743033381,2303,cafe,The Yellow Deli,-117.24084,33.20168
6399823282,2501,supermarket,Northgate Market,-117.22867,33.21647
358781846,2082,school,Coronado Village Elementary School,-117.18309,32.692
358782542,2082,school,Coronado High School,-117.1817,32.69172
358782544,2082,school,Coronado Middle School,-117.18226,32.69116
358782706,2082,school,Crockett School,-117.12586,32.69839
358782723,2082,school,Crown School,-117.19142,32.69672
358783711,2082,school,Emerson School,-117.11725,32.69561
358783924,2082,school,Fairhaven School,-117.12475,32.68672
358788244,2082,school,Perkins Elementary School,-117.14975,32.70116
358791472,2082,school,Sacred Heart School,-117.18003,32.6895
358858419,2082,school,Booker T Crenshaw Christian School,-117.1265,32.70251
365319945,2501,supermarket,Food Palace,-117.11756,32.69705
368168770,2083,kindergarten,Coronado Baptist Day Care Center,-117.17197,32.69837
595996912,2402,motel,El Rancho Motel,-117.17508,32.69497
596275709,2402,motel,Crown City Inn,-117.17639,32.69276
596724150,2402,motel,La Avenida Inn,-117.17816,32.68326
596786344,2402,motel,Glorietta Bay Inn,-117.1765,32.68176
597002895,2501,supermarket,Northgate Market,-117.14576,32.69858
597088921,2402,motel,"1906 Lodge, A Four Sisters Inn",-117.17659,32.68369
2653096337,2303,cafe,The Tavern,-117.17882,32.68278
4154351790,2402,motel,Cherokee Lodge,-117.18111,32.68679
4519165285,2303,cafe,CAFE 1134,-117.1795,32.68436
6858345556,2012,community_centre,Waterfront RecCenter,-117.12847,32.68451
6858361039,2303,cafe,Starbucks,-117.12853,32.68464
358791376,2082,school,Ross Elementary School,-117.16152,32.81178
358845351,2082,school,Islamic School of San Diego,-117.16698,32.82005
358860410,2082,school,Digital Media and Design Senior High School,-117.15902,32.80102
358860441,2082,school,International Business Senior High School,-117.15902,32.80102
358860467,2082,school,Kum Kwan Preschool,-117.15249,32.82395
358860957,2082,school,San Diego Metropolitan Regional and Technical School,-117.16355,32.80459
358860965,2082,school,Science Connections and Technology Senior High School,-117.15902,32.80102
358860970,2082,school,Stanley E Foster Construction Technology Academy,-117.15902,32.80102
365319435,2501,supermarket,Carnival Supermarket,-117.16059,32.80877
654795120,2501,supermarket,99 Ranch Market,-117.16078,32.83331
1727083634,2303,cafe,Starbucks,-117.15373,32.83045
1727146721,2303,cafe,Tea Station,-117.16059,32.83194
1727153303,2303,cafe,Tea N More,-117.15979,32.83293
2515505702,2501,supermarket,,-117.15434,32.82424
2658407058,2501,supermarket,Nijiya Market,-117.15398,32.81428
2755558172,2303,cafe,Pangea Bakery Cafe,-117.15428,32.82615
2769570085,2303,cafe,Cali Baguette,-117.1548,32.82081
3259081321,2303,cafe,Starbucks,-117.14946,32.81972
3311017877,2303,cafe,,-117.16364,32.83339
4010475057,2303,cafe,Starbucks,-117.1571,32.80171
6026181607,2303,cafe,Rose Donuts,-117.15781,32.80189
6540211485,2303,cafe,Starbucks,-117.16594,32.83235
358780321,2082,school,Barrett School,-116.69613,32.60617
358782271,2082,school,Clover Flats Elementary School,-116.29085,32.66895
358815948,2082,school,Potrero Elementary School,-116.6128,32.61034
358846409,2082,school,Mountain Empire High School,-116.49224,32.73394
365319500,2501,supermarket,Wisteria Candy Cottage,-116.28834,32.66842
4677237792,2501,supermarket,OakShoreGro,-116.51233,32.68023
4709171789,2303,cafe,Cafe B,-116.46346,32.62109
358792652,2082,school,Silver Strand Elementary School,-117.14503,32.6445
358794549,2082,school,West View Elementary School,-117.1267,32.58672
358860440,2082,school,Imperial Beach Head Start,-117.12338,32.57632
1601999001,2303,cafe,,-117.13224,32.57969
358782357,2082,school,Collier Junior High School,-117.23837,32.74783
358782826,2082,school,Dana Junior High School,-117.23269,32.73278
358784694,2082,school,Dewey Elementary School,-117.21281,32.74644
358860430,2082,school,High Tech High International School,-117.21906,32.73318
358860481,2082,school,Living Epistles Christian Center,-117.21411,32.74894
365319768,2501,supermarket,Ralphs,-117.21093,32.75178
365319772,2501,supermarket,Stumps Apple Market #3,-117.22919,32.74121
444159582,2303,cafe,Starbucks,-117.21711,32.73631
444159684,2501,supermarket,Trader Joe's,-117.21737,32.73607
444664317,2303,cafe,Starbucks,-117.2177,32.72796
596231038,2012,community_centre,Point Loma Assembly,-117.23372,32.7202
596271193,2402,motel,Cabrillo Inn & Suites Airport,-117.23161,32.72228
596577873,2501,supermarket,Barons Market,-117.22232,32.75347
596651506,2402,motel,Good Nite Inn,-117.20649,32.75567
596837831,2303,cafe,Starbucks,-117.22741,32.72715
596856437,2082,school,High Tech High Media Arts,-117.21972,32.73464
596955772,2303,cafe,Better Buzz Coffee: Point Loma,-117.22826,32.72621
778602392,2504,mall,Moment Cycle Shop,-117.22909,32.72464
778604140,2402,motel,Ramada San Diego Airport,-117.22832,32.7252
1607125620,2303,cafe,The Living Room,-117.23282,32.72064
2699515567,2501,supermarket,Ralphs,-117.22632,32.72852
3023778053,2501,supermarket,Sprouts Farmers Market,-117.20649,32.74765
4632592430,2303,cafe,Starbucks,-117.20617,32.75159
4707742690,2082,school,Honey Bear Preschool and Child Care Center,-117.23239,32.75143
4786156559,2303,cafe,Peet's Coffee,-117.2042,32.73239
4786156563,2303,cafe,Starbucks,-117.20406,32.73323
4786156565,2303,cafe,Pannakin,-117.20389,32.7339
4786156572,2303,cafe,Peet's Coffee,-117.20134,32.7332
5214515270,2303,cafe,Marvelous Muffins,-117.2305,32.72209
6568829932,2504,mall,Scandia Plaza,-117.20685,32.75185
6568889288,2504,mall,Midway Garden Plaza,-117.20902,32.7501
6668894881,2303,cafe,,-117.22338,32.76435
6784216887,2303,cafe,,-117.21486,32.75172
6833037312,2303,cafe,Winchell's Donut House,-117.22758,32.72615
358779819,2082,school,Anza Elementary School,-116.9478,32.78144
358780235,2082,school,John Ballantyne Elementary School,-116.9542,32.79574
358781008,2082,school,Bostonia Elementary School,-116.93124,32.80872
358781650,2082,school,Casa de Oro Elementary School,-116.97364,32.74755
358781974,2082,school,Chase Elementary School,-116.96058,32.77977
358783519,2082,school,El Cajon Valley Christian School,-116.95364,32.82533
358783522,2082,school,El Cajon Valley High School,-116.94654,32.79741
358783694,2082,school,Emerald Intermediate School,-116.96808,32.77894
358784140,2082,school,Flying Hills Elementary School,-116.98197,32.81199
358786678,2082,school,Johnson Avenue Elementary School,-116.96975,32.80144
358789626,2082,school,Naranca Elementary School,-116.94808,32.8045
358790523,2082,school,Pepper Drive Elementary School,-116.95392,32.82755
358790859,2082,school,Prospect Avenue School,-116.99586,32.83338
358791510,2082,school,Saint Albans School,-116.96225,32.79061
358791682,2082,school,Southern California Seminary,-116.90586,32.7995
358792904,2082,school,Spring Valley Middle School,-116.98864,32.75061
358793382,2082,school,The Oaks School,-116.8928,32.72339
358845755,2082,school,Rancho San Diego School,-116.9203,32.75283
358845789,2082,school,Chaparral High School,-116.98031,32.81755
358845804,2082,school,Heartland Fire Training Center,-116.97531,32.81394
358845888,2082,school,Crest Elementary School,-116.86614,32.80533
358846375,2082,school,Highlands Elementary School,-116.98058,32.73783
358846377,2082,school,La Presa Elementary School,-116.99284,32.70644
358858219,2082,school,San Diego Christian College,-116.90241,32.79986
358860378,2082,school,Calvary Chapel of el Cajon Preschool,-116.97098,32.79519
358860417,2082,school,Foothills Preschool,-116.9618,32.75197
358860960,2082,school,Santa Sophia Catholic Church Preschool,-116.98432,32.74902
358860972,2082,school,The Circle Preschool,-116.96071,32.79049
365319579,2501,supermarket,Albertsons,-116.93774,32.7393
365319612,2501,supermarket,Albertsons Supermarket,-116.92022,32.80863
365319683,2501,supermarket,Harvest Ranch Market #1,-116.92733,32.78666
365319696,2501,supermarket,Albertsons Supermarket,-116.96407,32.796
365319933,2501,supermarket,Salsa Market,-116.96718,32.78102
475482267,2303,cafe,Starbucks,-116.96206,32.82033
596161862,2501,supermarket,Smart and Final Extra,-116.97495,32.80819
596595262,2501,supermarket,Albertsons,-116.98465,32.74716
596804581,2402,motel,Villa Serena Motel El Cajon,-116.97545,32.78653
597059760,2303,cafe,Starbucks,-116.95852,32.8081
597072967,2013,nursing_home,Granite Hills Health and Wellness Center,-116.9341,32.80076
597173530,2303,cafe,Jersey Mike's Sub Shop,-116.96064,32.80747
876414570,2303,cafe,Starbucks,-116.92981,32.74599
2033292794,2303,cafe,The Coffee Bean & Tea Leaf,-116.96835,32.80496
2104963010,2303,cafe,Kaffee Meister,-116.90569,32.83166
4153493196,2402,motel,Valley Motel,-116.95065,32.8019
4153493197,2402,motel,Super 8 East San Diego / El Cajon,-116.96181,32.80028
4153493198,2402,motel,Northgate Motel,-116.96215,32.79987
4153493199,2402,motel,Motel 6 San Diego - El Cajon,-116.96452,32.80188
4153493200,2402,motel,Travelodge El Cajon,-116.96675,32.79453
4660717316,2501,supermarket,Sprouts Farmers Market,-116.93651,32.7963
358789980,2082,school,Ocean Beach Elementary School,-117.24701,32.74502
358791464,2082,school,Sacred Heart Preschool,-117.24779,32.74721
358791504,2082,school,Saint Agnes School,-117.2417,32.72338
358792631,2082,school,Silver Gate Elementary School,-117.25254,32.73227
358846041,2082,school,Saint Peters by the Sea Pre-School,-117.25476,32.73588
454844002,2501,supermarket,Ocean Beach People's Coop,-117.2429,32.74953
596163550,2303,cafe,OB Bean Coffee Roasters,-117.24906,32.74546
1405217353,2303,cafe,Jungle Java,-117.25202,32.74726
3347071477,2303,cafe,Little Lion Cafe,-117.25463,32.73675
4358283326,2303,cafe,Walking on Water Cafe,-117.2576,32.74967
4572074086,2303,cafe,,-117.2426,32.7504
5693676841,2303,cafe,Peet's Coffee,-117.24534,32.72214
5745808997,2303,cafe,Starbucks,-117.25083,32.74692
5746612566,2405,hostel,OB Hostel,-117.25054,32.74633
6582969883,2082,school,Pioneer Day School,-117.24615,32.74545
6582970436,2303,cafe,Lazy Hummingbird Coffee & Tea House,-117.24811,32.74649
358858167,2082,school,Point Loma Nazarene University,-117.25109,32.71697
358860788,2005,post_office,National City Post Office,-117.09713,32.67102
358860794,2005,post_office,Paradise Hills Post Office,-117.0652,32.67594
368168865,2002,fire_station,San Diego City Fire Station 12,-117.08785,32.7044
368168941,2002,fire_station,San Diego City Fire Station 32,-117.03703,32.69212
368170996,2007,library,San Diego County Lincoln Acres Branch Library,-117.07134,32.66654
368171000,2007,library,Spring Valley Branch San Diego County Library,-117.01642,32.71339
368171006,2007,library,National City Public Library,-117.10422,32.67061
368171206,2007,library,Mountain View-Beckworth Branch San Diego City Public Library,-117.10261,32.69801
461501030,2002,fire_station,Bonita/Sunnyside Fire Station,-117.02329,32.66553
596262061,2007,library,Skyline Hills Branch San Diego Public Library,-117.02668,32.69777
4679659525,2005,post_office,"Mail Boxes, Etc",-117.03322,32.65973
6453680996,2001,police,,-117.03442,32.66094
6846203102,2001,police,National City Police Community Storefront,-117.06462,32.65542
358860782,2005,post_office,John Adams Post Office,-117.12306,32.76354
368168863,2002,fire_station,San Diego City Fire Station 14,-117.1249,32.75055
596499269,2007,library,North Park Branch San Diego Public Library,-117.12685,32.74727
3771382367,2005,post_office,The UPS Store,-117.1241,32.74838
368167810,2002,fire_station,Fire Station Number 4,-117.15756,32.70957
368171205,2007,library,Library Towers,-117.16043,32.71098
596796641,2007,library,San Diego Central Library,-117.15423,32.7088
3804251757,2005,post_office,PostalAnnex,-117.16448,32.71239
358860810,2005,post_office,United States Naval Hospital Post Office,-117.14513,32.7241
368168864,2002,fire_station,San Diego City Fire Station #11,-117.13997,32.71553
4548280800,2001,police,San Diego Harbor Police Headquarters,-117.19417,32.72861
6016767742,2005,post_office,PostalAnnex,-117.16103,32.73125
368168939,2002,fire_station,San Diego City Fire Station 29,-117.0475,32.55334
368171025,2007,library,San Ysidro Branch San Diego Public Library,-117.04429,32.55262
358845211,2005,post_office,La Jolla Post Office,-117.27245,32.84738
358860784,2005,post_office,La Jolla Annex Post Office,-117.27642,32.84151
368168870,2002,fire_station,San Diego City Fire Station 16,-117.2535,32.84093
368170945,2007,library,Athenaeum Music and Arts Library,-117.2742,32.84699
368170946,2007,library,Helen Palmer Geisel Library,-117.27782,32.8456
368170967,2007,library,"Institute for World Understanding of Peoples, Cultures and Languages Library",-117.27782,32.84644
358845225,2005,post_office,Pacific Beach Post Office,-117.24448,32.7981
368168874,2002,fire_station,San Diego City Fire Station 21,-117.25536,32.79485
368168938,2002,fire_station,San Diego City Fire Station 25,-117.20653,32.78183
368170949,2007,library,Pacific Beach Branch San Diego Public Library,-117.24143,32.80116
368170970,2007,library,North Clairemont Branch San Diego Public Library,-117.20646,32.82837
358844984,2005,post_office,Julian Post Office,-116.598,33.07621
358845846,2005,post_office,Descanso Post Office,-116.61581,32.85343
368167796,2002,fire_station,Alpine Fire Station,-116.77731,32.836
368168623,2002,fire_station,Alpine Fire Station,-116.74058,32.83339
368170940,2007,library,Julian Branch San Diego County Library,-116.59658,33.07697
368170978,2007,library,Alpine Branch San Diego County Library,-116.76826,32.83538
368170979,2007,library,Pine Valley Branch San Diego County Library,-116.53136,32.82361
368170980,2007,library,Descanso Branch San Diego County Library,-116.61484,32.86004
368171669,2008,town_hall,Julian Town Hall,-116.60242,33.07831
596816418,2005,post_office,Alpine Post Office,-116.76829,32.83477
1829334426,2002,fire_station,Warner Springs Fire Station,-116.6426,33.27298
3500309974,2002,fire_station,Descanso Fire Station,-116.61627,32.86156
3500309975,2002,fire_station,Descanso Fire Station,-116.62449,32.85558
3500309976,2002,fire_station,Laguna Hotshots,-116.62355,32.8555
4654108446,2005,post_office,United States Post Office,-117.14897,32.76915
4777387246,2007,library,Pardee Legal Research Center,-117.18747,32.7717
5093386352,2002,fire_station,,-117.00571,32.79147
5136183979,2001,police,SDSU Police Station,-117.07691,32.77477
6189296846,2002,fire_station,,-116.98007,32.76984
6189296901,2005,post_office,United States Post Office,-117.01438,32.77759
358845081,2005,post_office,Del Mar Post Office,-117.26643,32.95949
358860768,2005,post_office,Carmel Valley Finance Unit Post Office,-117.23243,32.93825
368170941,2007,library,Del Mar Branch San Diego County Library,-117.26427,32.95773
2124636744,2005,post_office,US Post Office - Sorrento Valley Branch,-117.22046,32.90408
2184863604,2005,post_office,PostalAnnex,-117.23105,32.93977
2232560213,2005,post_office,The UPS Store,-117.23053,32.95356
3708719325,2005,post_office,FedEx,-117.23287,32.95346
4483048920,2005,post_office,PostalAnnex,-117.24628,32.95041
368170942,2007,library,Salk Institute Library,-117.24615,32.88699
446675585,2001,police,,-117.23619,32.88002
446676453,2005,post_office,Mailing Center,-117.22954,32.882
664383357,2001,police,,-117.21565,32.87688
1363137037,2002,fire_station,Station 35,-117.21519,32.87697
276540738,2005,post_office,,-117.22408,32.86252
358860780,2005,post_office,Golden Triangle Post Office,-117.21501,32.86858
358860812,2005,post_office,University City Post Office,-117.21453,32.85117
1198002973,2005,post_office,FedEx Office,-117.23167,32.86937
597027786,2002,fire_station,Chula Vista Fire Station 3,-117.02887,32.61007
5316300408,2005,post_office,United States Post Office,-117.03436,32.5825
358845463,2005,post_office,Grantville Post Office,-117.09068,32.78207
368168942,2002,fire_station,San Diego City Fire Station 31,-117.06644,32.79276
368168960,2002,fire_station,San Diego City Fire Station 39,-117.09859,32.82058
368170965,2007,library,Benjamin Branch San Diego Public Library,-117.08149,32.79307
368170966,2007,library,Tierrasanta Branch San Diego Public Library,-117.09809,32.82088
368171140,2099,public_building,Mission Trails Regional Park Headquarters,-117.05674,32.82005
368171207,2007,library,Mission San Diego Library,-117.10557,32.78452
597156116,2007,library,College-Rolando Library,-117.0561,32.76943
3874485393,2005,post_office,US Post Office (Tierrasanta),-117.09825,32.84047
6636223970,2005,post_office,The UPS Store,-117.10211,32.82234
358860764,2005,post_office,Andrew Jackson Post Office,-117.06008,32.7641
358860770,2005,post_office,City Heights Post Office,-117.10476,32.74971
358860771,2005,post_office,College Grove Center Post Office,-117.05306,32.74406
368168859,2002,fire_station,San Diego City Fire Station 10,-117.06385,32.76085
368168866,2002,fire_station,San Diego City Fire Station 17,-117.09684,32.75336
368168927,2002,fire_station,San Diego City Fire Station 26,-117.0799,32.73541
368170961,2007,library,Normal Heights-Kensington Branch San Diego Public Library,-117.10678,32.76299
368170964,2007,library,East San Diego Branch San Diego Public Library,-117.10059,32.75116
368171005,2007,library,Oak Park Branch San Diego Public Library,-117.08003,32.73505
358860795,2005,post_office,Rancho Bernardo Annex Post Office,-117.07474,33.02219
358860796,2005,post_office,Rancho Bernardo Post Office,-117.07407,33.01679
368168962,2002,fire_station,San Diego City Fire Station 42,-117.0733,32.98299
368170933,2007,library,Rancho Bernardo Branch San Diego Public Library,-117.07517,33.02501
368171218,2007,library,San Diego Cultural Library,-117.05131,33.01877
596203319,2007,library,Carmel Mountain Ranch Branch Library,-117.07372,32.98163
3285088964,2005,post_office,United States Post Office,-117.08175,32.98301
368170947,2007,library,Poway Branch San Diego County Library,-117.04579,32.956
368171221,2007,library,Alliant International University of San Diego Library,-117.09513,32.89681
3760676022,2007,library,San Diego County Philatelic Library,-117.04757,32.94005
5070131345,2002,fire_station,Fire Station #7,-116.99245,32.80325
358845683,2005,post_office,Serra Mesa Post Office,-117.13987,32.80152
368171213,2007,library,Serra Cooperative Library System Administration Building,-117.13042,32.83417
358860813,2005,post_office,William Taft Post Office,-117.20199,32.83379
368168940,2002,fire_station,San Diego City Fire Station 27,-117.20166,32.83385
981622526,2001,police,Sheriff Substation,-117.27345,33.20007
4622531282,2007,library,Take a Book - Return a Book,-117.31878,33.10086
358844699,2005,post_office,San Marcos Post Office,-117.16281,33.14504
368170928,2007,library,San Marcos Branch San Diego County Library,-117.1604,33.14121
967647129,2002,fire_station,Vista Fire Department,-117.24211,33.15516
797412592,2002,fire_station,San Marcos Station 2,-117.21803,33.1232
2896359672,2002,fire_station,,-117.17139,33.10796
4229142289,2005,post_office,PostalAnnex,-117.2537,33.12658
5008542402,2002,fire_station,Carlsbad Station No. 6,-117.22592,33.09444
1999507156,2002,fire_station,,-117.08539,33.09019
1999507158,2002,fire_station,,-117.08524,33.09088
358844604,2005,post_office,Oceanside Post Office,-117.37809,33.19531
368171672,2008,town_hall,Oceanside City Hall,-117.37962,33.19808
368170969,2007,library,University Community Branch San Diego Public Library,-117.20098,32.85399
1254877668,2005,post_office,Mail Exchange,-117.20245,32.85424
1429439652,2005,post_office,PostalAnnex,-117.20657,32.867
1712136226,2005,post_office,Mail Exchange,-117.20245,32.85424
358845986,2005,post_office,Lemon Grove Post Office,-117.02697,32.74255
358860785,2005,post_office,La Mesa Annex Post Office,-117.02228,32.78963
358860789,2005,post_office,Navajo Post Office,-117.01356,32.80064
368167187,2099,public_building,Grossmont - Cuyamaca Community College District Office,-117.0076,32.82006
368168943,2002,fire_station,San Diego City Fire Station 34,-117.0252,32.80257
368170975,2007,library,South County Regional Center San Diego County Library,-117.02308,32.76727
368170998,2007,library,Lemon Grove Branch San Diego County Library,-117.03169,32.74144
368171141,2099,public_building,La Mesa Civic Center,-117.02281,32.76644
368171208,2007,library,La Mesa Library,-117.02341,32.76632
368171216,2007,library,San Carlos Library,-117.04065,32.802
368171236,2007,library,Dr. William C. Herrick Community Health Care Library,-117.00404,32.78177
368171682,2008,town_hall,Lemon Grove City Hall,-117.03142,32.74033
358860787,2005,post_office,Mission Valley Post Office,-117.14962,32.76726
1337466812,2002,fire_station,,-117.12206,32.76274
5133921132,2002,fire_station,,-117.02407,32.76619
5162237958,2001,police,School Police Headquarters,-117.1484,32.75556
358844560,2005,post_office,Borrego Springs Post Office,-116.37877,33.25461
368167792,2002,fire_station,Borrego Springs Fire Station,-116.37196,33.26143
368170926,2007,library,Borrego Springs Branch San Diego County Library,-116.37668,33.25671
2163332826,2005,post_office,Mt Laguna Post Office,-116.41919,32.86719
2443444325,2002,fire_station,Mount Laguna Volunteer Fire Station,-116.42245,32.85747
2443448923,2002,fire_station,Camp Ole Fire Station (USFS),-116.42919,32.88038
3500293581,2002,fire_station,Glencliff Fire Station,-116.50001,32.80036
4605180391,2007,library,,-116.37962,33.25572
358845946,2005,post_office,Main Branch San Diego Post Office,-117.15694,32.71423
368167613,2009,courthouse,San Diego County Courthouse,-117.16531,32.71616
368167614,2009,courthouse,San Diego County Family Court,-117.15892,32.72116
368168858,2002,fire_station,San Diego City Fire Station #1,-117.16449,32.71795
368170985,2007,library,Jerry MacMullen Library,-117.17359,32.71922
368170986,2007,library,San Diego County Law Library,-117.16441,32.71699
368170992,2007,library,Paul Whittier Historical Aviation Library,-117.15449,32.72609
368171210,2007,library,Law Library Justice Foundation of San Diego,-117.16462,32.71701
368174639,2007,library,San Diego Air & Space Museum Library and Archive,-117.15435,32.72643
596140141,2009,courthouse,Madge Bradley Probate Courthouse,-117.16082,32.72018
358844512,2005,post_office,Pauma Valley Post Office,-116.97825,33.30377
596153364,2002,fire_station,Miller Station 15,-117.13636,33.29931
596809364,2002,fire_station,,-117.14726,33.41422
751825288,2005,post_office,Pala Postal Service,-117.07626,33.36662
2616785107,2002,fire_station,Pala Fire Station 66,-117.07662,33.36337
2616785112,2099,public_building,Pala Tribal Government Administration,-117.06892,33.36649
2616785113,2007,library,Pala Learning Center,-117.07487,33.36592
358860800,2005,post_office,Riverfront Annex Post Office,-117.13507,32.77229
368167168,2099,public_building,San Diego Community College District - District Office,-117.12038,32.77622
368168871,2002,fire_station,San Diego City Fire Station 23,-117.17159,32.78296
368170950,2007,library,Clairmont Branch San Diego Public Library,-117.19392,32.79366
368170972,2007,library,Linda Vista Branch San Diego Public Library,-117.17004,32.78326
1741816759,2007,library,San Diego Public Library,-117.12696,32.77936
2053874881,2007,library,Copley Library,-117.19345,32.77141
2660475368,2001,police,USD Public Safety,-117.19038,32.77084
2985490718,2005,post_office,The UPS Store,-117.19264,32.79519
5093700139,2002,fire_station,SD Fire-Rescue Station 45,-117.12424,32.78634
368170927,2007,library,Carlsbad City Library,-117.34032,33.16476
368171673,2008,town_hall,Carlsbad City Hall,-117.34087,33.16448
316550921,2005,post_office,Hillcrest San Diego Post Office,-117.15071,32.74942
368168892,2002,fire_station,San Diego City Fire Station 8,-117.17161,32.74965
368168961,2002,fire_station,San Diego City Fire Station 5,-117.15654,32.74868
368170968,2007,library,Jean Farb Memorial Medical Library,-117.15976,32.75144
368170974,2007,library,University Heights Branch San Diego Public Library,-117.14593,32.75384
1834875849,2005,post_office,The UPS Store,-117.16261,32.75023
1102385440,2002,fire_station,Fire Station #3,-117.10629,33.14939
1102385684,2002,fire_station,Fire Station #6,-117.10219,33.105
3285113372,2001,police,San Diego County Sheriff,-117.14662,33.14184
3378423063,2002,fire_station,San Marcos Fire Station #3,-117.13608,33.14421
4045127791,2005,post_office,PostalAnnex,-117.13895,33.14099
4045547106,2005,post_office,PostalAnnex,-117.12961,33.15597
358860775,2005,post_office,Eastlake Post Office,-116.96719,32.65305
368171232,2007,library,Eastlake Branch-Eastlake High School Campus Branch Chula Vista City Library,-116.9674,32.64058
2660068006,2002,fire_station,,-116.94565,32.64572
358846717,2005,post_office,Castle Park Post Office,-117.06975,32.61006
358860798,2005,post_office,Rancho Del Rey Post Office,-117.06854,32.61023
3621161164,2002,fire_station,,-117.059,32.63159
557386710,2099,public_building,SENTRI Office,-116.93781,32.55088
596761270,2002,fire_station,Chula Vista Fire Department Station 7,-116.98499,32.62094
2645047541,2007,library,Chula Vista Public Library Otay Ranch Branch,-116.96801,32.62419
6312015622,2001,police,Chula Vista Police Otay Ranch Storefront,-116.96918,32.62383
6355766038,2005,post_office,The UPS Store,-116.96563,32.62846
358845747,2005,post_office,Lakeside Post Office,-116.92086,32.85727
358845900,2005,post_office,Santee Post Office,-116.97614,32.83894
368170983,2007,library,Santee Branch San Diego County Library,-116.99686,32.84468
368171681,2008,town_hall,Santee City Hall,-116.96475,32.83922
624987910,2002,fire_station,Lakeside Fire Station 3,-116.88442,32.84426
5825476430,2005,post_office,US Post Office,-117.16269,32.71451
358845045,2005,post_office,Mira Mesa Post Office,-117.12837,32.91671
358860802,2005,post_office,Scripps Ranch Annex Post Office,-117.11071,32.90178
596347147,2005,post_office,,-117.11408,32.91466
1079759875,2007,library,Scripps Miramar Ranch Library,-117.10506,32.91123
1436071209,2002,fire_station,,-117.12341,32.90152
1451219566,2005,post_office,Fedex Print & Ship Center,-117.12221,32.9162
6165276442,2002,fire_station,Miramar Fire Station #62,-117.10668,32.86098
358846160,2005,post_office,Chula Vista Post Office,-117.08503,32.6395
368171007,2007,library,Chula Vista Library,-117.08321,32.641
368171584,2099,public_building,Chula Vista Convention and Visitors Bureau,-117.08257,32.64009
4069440963,2001,police,Chula Vista Police Department Headquarters,-117.08318,32.63993
4069446758,2008,town_hall,Chula Vista City Hall,-117.08532,32.64079
5307911714,2007,library,24/7 Library To Go,-117.08574,32.60588
358845146,2005,post_office,Solana Beach Post Office,-117.27282,32.99005
368166841,2099,public_building,Solana Beach School District Office,-117.27062,32.99556
368171671,2008,town_hall,Solana Beach City Hall,-117.27031,32.98393
373132465,2007,library,Solana Beach Branch San Diego County LIbrary,-117.26276,32.99431
358844479,2005,post_office,Fallbrook Post Office,-117.25115,33.37809
368167786,2002,fire_station,Bonsall Fire Station,-117.21892,33.28392
368167788,2002,fire_station,Fallbrook Fire Station,-117.24892,33.38336
368167790,2002,fire_station,Fallbrook Fire Station Number 2,-117.21309,33.34503
368170925,2007,library,Fallbrook Branch San Diego County Library,-117.25324,33.3817
725132332,2001,police,"Border Patrol Station - San Clemente, CA",-117.52643,33.35387
971128482,2002,fire_station,,-117.42475,33.32837
971128783,2002,fire_station,,-117.34223,33.30566
971128784,2002,fire_station,,-117.32729,33.32971
1250226492,2002,fire_station,North County Fire Station #3,-117.25013,33.3166
2636166301,2001,police,Brig,-117.33654,33.30116
3815256462,2002,fire_station,Station Five,-117.22733,33.28968
6582969882,2002,fire_station,Fire Station 15,-117.2418,32.74881
358844922,2005,post_office,Rancho Santa Fe Post Office,-117.20504,33.02004
368170936,2007,library,Rancho Santa Fe Branch San Diego County Library,-117.20504,33.02032
384247139,2005,post_office,Encinitas Post Office,-117.26449,33.05832
619046385,2002,fire_station,Encinitas FS #5,-117.2686,33.04468
619419807,2002,fire_station,Encinitas FS #4,-117.24543,33.05358
596013904,2002,fire_station,,-116.87165,33.35994
822324537,2002,fire_station,"Palomar Mountain Volunteer Fire Department, Station 79, BLS",-116.86249,33.31273
368168894,2002,fire_station,San Diego International Airport Fire Station,-117.18438,32.74071
1868215412,2005,post_office,FedEx Office,-117.19652,32.76473
6832952613,2007,library,MCRD Library,-117.20121,32.74291
358860799,2005,post_office,Rancho Peñasquitos Post Office,-117.12814,32.95711
368168948,2002,fire_station,San Diego City Fire Station 40,-117.12228,32.95962
368170948,2007,library,Rancho Peñasquitos Branch San Diego Public Library,-117.12364,32.95977
607607158,2001,police,,-117.12291,32.95922
549319754,2002,fire_station,Rancho Santa Fe Fire District Station 2 & Training Facility,-117.12294,33.02249
549319759,2001,police,San Diego County Sheriff's Department 4S Ranch Substation,-117.1191,33.02156
550876840,2007,library,San Diego County 4S Ranch Branch Library,-117.11434,33.02116
551064631,2005,post_office,The UPS Store,-117.11224,33.01948
358860765,2005,post_office,Cardiff By the Sea Post Office,-117.28198,33.02277
368170931,2007,library,Cardiff by the Sea Branch San Diego County Library,-117.28142,33.02196
619047096,2002,fire_station,Encinitas FS #2,-117.27711,33.02612
619413672,2002,fire_station,Encinitas FS #3,-117.29345,33.06367
2882797854,2008,town_hall,City of Encinitas Public Works Department; San Dieguito Water District,-117.28528,33.04682
3227588019,2005,post_office,The UPS Store,-117.2939,33.04845
3396400758,2005,post_office,Village Post Office,-117.27924,33.04825
358844952,2005,post_office,Valley Center Post Office,-117.02452,33.23215
368167794,2002,fire_station,Valley Center Fire Station,-117.02364,33.23559
368170935,2007,library,Valley Center Branch San Diego County Library,-117.02475,33.24264
596809916,2007,library,Pioneer Room,-117.07916,33.12068
1364078881,2007,library,Libreria Cristiana Emanuel,-117.06692,33.12958
1402745715,2001,police,Palomar College Police,-117.05235,33.1361
1402745718,2007,library,Ernest J. Allen Library,-117.0521,33.1358
368171012,2007,library,Woodlawn Park Branch Chula Vista Public Library,-117.04308,32.59589
6353321015,2005,post_office,The UPS Store,-117.03978,32.60578
368168946,2002,fire_station,San Diego City Fire Station 36,-117.17452,32.82235
368170962,2007,library,Balboa Branch San Diego Public Library,-117.17497,32.82232
1499579472,2005,post_office,PostalAnnex,-117.18176,32.82127
1572280743,2005,post_office,The UPS Store,-117.17863,32.81887
358846462,2005,post_office,Imperial Beach Post Office,-117.11364,32.58256
368168964,2002,fire_station,San Diego City Fire Station 6,-117.04513,32.58398
368171003,2007,library,Imperial Beach Branch San Diego County Library,-117.11642,32.57728
368171683,2008,town_hall,Imperial Beach City Hall,-117.11642,32.57617
5308878470,2005,post_office,PostalAnnex,-117.09083,32.58609
358787706,2008,town_hall,Vista Civic Center,-117.23511,33.20302
358844955,2005,post_office,Vista Post Office,-117.2317,33.1917
592640049,2009,courthouse,San Diego Superior Court,-117.25616,33.1919
968108242,2002,fire_station,Vista Fire Dept.,-117.23608,33.20637
969639215,2001,police,,-117.25677,33.1917
978164500,2002,fire_station,Vista Fire Dept.,-117.22677,33.22941
983021358,2002,fire_station,Vista Fire Dept.,-117.2552,33.19739
2134580982,2009,courthouse,Vista Court House,-117.25634,33.19044
6399823389,2005,post_office,The UPS Store,-117.22456,33.21801
358860772,2005,post_office,Coronado Post Office,-117.17751,32.68354
368168963,2002,fire_station,San Diego City Fire Station 7,-117.14485,32.70148
3673346447,2001,police,Coronado Police Department,-117.17809,32.68978
6858384938,2007,library,The Recyard,-117.12413,32.6878
6903652709,2002,fire_station,Fire Station No. 17,-117.11808,32.68514
6916734866,2002,fire_station,,-117.12665,32.68435
368167725,2002,fire_station,Jacumba Fire Station,-116.19196,32.61951
368171004,2007,library,Campo Branch San Diego County Library,-116.47307,32.62839
2572521859,2001,police,,-116.28948,32.66966
3500301397,2002,fire_station,Cottonwood Fire Station,-116.49761,32.72176
3500301398,2002,fire_station,Cameron Fire Station,-116.46596,32.72095
4281539089,2005,post_office,Dulzura U.S. Post Office,-116.78098,32.64398
4677105791,2005,post_office,,-116.47086,32.60731
368171204,2007,library,Mar Vista High School Library,-117.12241,32.58031
1601999014,2001,police,,-117.13233,32.57875
368170994,2007,library,Point Loma Branch San Diego Public Library,-117.2293,32.74004
2019723192,2005,post_office,United States Post Office,-117.20385,32.74677
5214515272,2005,post_office,The UPS Store,-117.20509,32.74927
358845702,2005,post_office,El Cajon Post Office,-116.96662,32.79229
358845726,2005,post_office,Bostonia Post Office,-116.93614,32.8095
358860806,2005,post_office,Spring Valley Casa de Oro Post Office,-116.98527,32.74784
358860807,2005,post_office,Spring Valley Post Office,-116.97237,32.73164
368170971,2007,library,Christian Heritage College Library,-116.90558,32.7995
368170973,2007,library,El Cajon Library,-116.96065,32.7932
368170977,2007,library,Crest Branch San Diego County Library,-116.86725,32.8045
368170984,2007,library,Fletcher Hills Branch San Diego County Library,-116.99774,32.80185
368171001,2007,library,Casa de Oro Branch San Diego County Library,-116.9903,32.74811
368171680,2008,town_hall,El Cajon City Hall,-116.95962,32.79552
596914097,2007,library,,-116.92903,32.7492
596948257,2002,fire_station,,-116.92886,32.74816
1314261369,2002,fire_station,San Miguel Fire Station #23,-116.90304,32.78803
2232157601,2001,police,El Cajon Police,-116.96047,32.79687
6567879749,2002,fire_station,,-116.96167,32.793
358846094,2005,post_office,Ocean Beach Post Office,-117.24764,32.74581
368168875,2002,fire_station,San Diego City Fire Station 22,-117.24443,32.72557
368170993,2007,library,Ocean Beach Branch San Diego Public Library,-117.24721,32.74548
6582970434,2005,post_office,Ocean Beach Business Center,-117.24815,32.74651
368170997,2007,library,Cabrillo National Monument Library,-117.23948,32.6745
768255372,2002,fire_station,Federal Fire Station 13,-117.23718,32.68352
