osm_id,code,fclass,name,lon,lat
358764486,2082,school,Davis School,-122.30192,38.31436
358769924,2082,school,Lutheran School,-122.29859,38.29825
1347464427,2303,cafe,Starbucks,-122.31065,38.32032
1347464429,2303,cafe,Peet's Coffee,-122.30606,38.32287
1347464430,2501,supermarket,Whole Foods Market,-122.30634,38.32325
1347464433,2501,supermarket,Trader Joe's,-122.30592,38.32279
3715632816,2501,supermarket,Lucky,-122.30178,38.32345
4087973860,2402,motel,Chablis Inn,-122.30904,38.31956
4087973861,2402,motel,Chardonnay Lodge,-122.29644,38.31242
4087973864,2402,motel,BEST WESTERN PLUS Elm House Inn,-122.30014,38.29702
4588462321,2303,cafe,Starbucks,-122.3024,38.32341
4610501222,2082,school,River Middle School,-122.3032,38.28732
4610501234,2082,school,Harvest Middle School,-122.30387,38.28671
4610544356,2303,cafe,Browns Valley Yogurt & Espresso Bar,-122.32927,38.30441
4611373695,2303,cafe,Golden Bagel,-122.29882,38.32047
6361223730,2303,cafe,Starbucks,-122.30769,38.32254
358832335,2082,school,Calistoga Junior-Senior High School,-122.58082,38.58407
358832359,2082,school,Palisades High School,-122.58082,38.5838
2291453831,2303,cafe,Calistoga Roastery,-122.57858,38.5791
2291453833,2402,motel,Eurospa and Inn,-122.57807,38.57529
358832310,2082,school,Development Center for Handicapped Minors,-122.25664,38.27936
358761181,2082,school,Atlas Peak School,-122.24997,38.41741
358763048,2082,school,Capell Elementary School,-122.20664,38.45296
358766702,2082,school,Gordon Valley School,-122.12164,38.33741
358765504,2082,school,Enterprise School,-122.45165,38.41158
358769746,2082,school,Los Amigos Elementary School,-122.33109,38.23075
358770984,2082,school,Mont La Salle School,-122.38831,38.33602
358771290,2082,school,Mount Veeder School,-122.41053,38.36713
4087973856,2402,motel,BEST WESTERN PREMIER Ivy Hotel Napa,-122.32321,38.33543
4087973857,2402,motel,Napa Winery Inn,-122.3171,38.33156
358767171,2082,school,Hardin School,-122.40165,38.6063
358767874,2082,school,Howell Mountain Elementary School,-122.4497,38.58296
358772306,2082,school,Pacific Union College,-122.44045,38.57025
358805472,2082,school,Pope Valley Elementary School,-122.43942,38.62324
358832358,2082,school,Pacific Union College Elementary School,-122.44053,38.56574
358832368,2082,school,St. Helena Catholic School,-122.4697,38.50324
358832382,2082,school,Saint Helena Senior High School,-122.46276,38.49713
622778483,2501,supermarket,College Market,-122.4435,38.57087
358764837,2082,school,Donaldson Way Elementary School,-122.26497,38.17158
358832403,2082,school,Napa Junction Elementary School,-122.2583,38.18547
2834857973,2303,cafe,Starbucks,-122.25469,38.1654
5543985884,2303,cafe,Starbucks,-122.25442,38.18206
358776208,2082,school,Soda Canyon School,-122.28609,38.35769
358805470,2082,school,Monticello Elementary School,-122.27914,38.66574
358806895,2110,hospital,Napa State Hospital,-122.26641,38.27802
1347454311,2303,cafe,Starbucks,-122.27502,38.28321
3715624080,2501,supermarket,Nob Hill,-122.28594,38.32419
4087973869,2402,motel,Napa Discovery Inn,-122.27523,38.29423
4499457190,2303,cafe,Starbucks,-122.2872,38.32385
4615542654,2303,cafe,Happy's Donut Tree,-122.29288,38.28109
4615542659,2501,supermarket,Grocery Outlet,-122.29088,38.28091
4617760867,2303,cafe,Starbucks,-122.28578,38.29922
4625801868,2082,school,Ox-Bow School of Art,-122.27902,38.29925
5872413086,2504,mall,Napa Town Centre,-122.28648,38.29935
6375008572,2303,cafe,Starbucks,-122.27723,38.28263
358851316,2005,post_office,Imola Contact Station Post Office,-122.30386,38.3463
368167639,2002,fire_station,Fire Station Number 2,-122.29997,38.31186
539833699,2002,fire_station,Carneros Vol. Fire Dept Stn 10,-122.30937,38.20545
539867038,2002,fire_station,Napa City Fire Station 2,-122.30014,38.31184
539940698,2002,fire_station,Soda Canyon Vol. Fire Dept. Stn 13,-122.29521,38.40996
358832336,2005,post_office,Calistoga Post Office,-122.57776,38.57824
368169937,2007,library,Calistoga Public Library,-122.57981,38.57608
368171958,2008,town_hall,Calistoga City Hall,-122.57971,38.57935
539762294,2001,police,Calistoga Police Department,-122.57991,38.57863
539791918,2001,police,Upper Valley Sheriffs Regional Stn,-122.50095,38.52791
539801432,2002,fire_station,Co. St Helena Fire Station 26,-122.51221,38.54784
539946377,2002,fire_station,Capell Valley Volunteer Fire Dept,-122.20565,38.45395
539946534,2002,fire_station,Co. Gordon Valley Fire Station 22,-122.12113,38.33578
539946535,2002,fire_station,Gordon Valley Volunteer Fire Dept,-122.12106,38.33578
358851320,2005,post_office,Veterans Home Post Office,-122.36387,38.39129
539595057,2002,fire_station,Dry Creek/Lokoya Vol. Fire Station 16,-122.43383,38.40739
539633563,2002,fire_station,Co. Yountville Fire Station 12,-122.35737,38.39498
539838166,2002,fire_station,Caneros. Vol. Fire Dept Satelite Stn,-122.33634,38.25484
539904564,2002,fire_station,Napa City Fire Station 3,-122.31828,38.33045
539834679,2002,fire_station,American Canyon Fire Department,-122.24812,38.17146
539834682,2001,police,American Canyon Police Department,-122.24841,38.17185
358832331,2005,post_office,Angwin Post Office,-122.44345,38.57032
358832369,2005,post_office,Saint Helena Post Office,-122.47153,38.50578
358851309,2005,post_office,Rutherford Post Office,-122.42276,38.45908
358851310,2005,post_office,Pope Valley Post Office,-122.42887,38.61546
358851312,2005,post_office,Oakville Post Office,-122.40313,38.43749
358851319,2005,post_office,Deer Park Post Office,-122.47581,38.54185
368169941,2007,library,Saint Helena Public Library,-122.46957,38.50786
368169944,2007,library,W E Nelson Memorial Library,-122.43998,38.5695
368171963,2008,town_hall,Saint Helena City Hall,-122.47165,38.5063
539718471,2002,fire_station,Rutherford Vol. Fire Dept. Station 15,-122.42354,38.4589
539730838,2002,fire_station,Rutherford Vol. Fire Dept. Equip Barn,-122.38253,38.47092
539795203,2002,fire_station,St. Helena Fire Department,-122.4713,38.50692
539795215,2001,police,St. Helena Police Department,-122.4713,38.50629
539803679,2002,fire_station,Deer Park Volunteer Fire Department,-122.47563,38.5446
539810508,2001,police,Upper Valley Sheriffs Regional Stn,-122.44179,38.57233
539810531,2002,fire_station,Angwin Volunteer Fire Department,-122.4447,38.57559
539821820,2002,fire_station,Co. Las Posadas Fire Station,-122.41874,38.56326
539832105,2002,fire_station,Pope Valley Vol. Fire Dept. Stn 20,-122.42886,38.61561
4650632311,2008,town_hall,American Canyon City Hall,-122.25611,38.18391
368167635,2002,fire_station,Napa City Fire Station 1,-122.29089,38.29683
368169939,2007,library,Napa County Law Library,-122.28563,38.29759
539867526,2001,police,Napa City Police Department,-122.29013,38.29677
539912229,2002,fire_station,Co. Napa Fire Station 25,-122.26395,38.33833
539952302,2002,fire_station,Co. Spanish Flat Fire Station 24,-122.23302,38.53799
539952304,2001,police,Napa County Sheriff Marine Unit,-122.22914,38.55074
