osm_id,code,fclass,name,lon,lat
276836154,2303.0,cafe,Starbucks,-122.06676,37.33711
276836172,2303.0,cafe,Peet's Coffee,-122.06616,37.33727
314082182,2303.0,cafe,Tom's Depot,-122.08737,37.35297
314151916,2501.0,supermarket,Andronico’s,-122.0969,37.36079
358773121,2082.0,school,Purissima School,-122.13496,37.35911
358838460,2082.0,school,Los Altos Christian Schools,-122.10045,37.35988
1327997361,2303.0,cafe,Starbucks,-122.05134,37.35264
1459467598,2501.0,supermarket,Smart and Final Extra!,-122.05123,37.35341
1699090143,2083.0,kindergarten,,-122.05431,37.35594
1818369713,2303.0,cafe,Los Altos Bakery and Cafe,-122.09647,37.36055
2204100722,2501.0,supermarket,Trader Joe's,-122.06751,37.33716
2619982674,2303.0,cafe,Main Street Bagels,-122.0977,37.36118
2619982709,2303.0,cafe,Starbucks,-122.09799,37.36139
2866748997,2501.0,supermarket,Lucky,-122.07153,37.34207
8605516730,2082.0,school,Freestyle Academy,-122.06422,37.36097
303809258,2303.0,cafe,Printer's Cafe,-122.14427,37.42724
968281587,2303.0,cafe,Starbucks,-122.14408,37.42685
992088570,2303.0,cafe,Cafe Zombie,-122.14485,37.42599
6544351129,2501.0,supermarket,Khoury's Market,-122.14849,37.42672
7979251485,2303.0,cafe,Backyard Brew,-122.14536,37.42601
357600882,2501.0,supermarket,Nijiya Market,-122.07145,37.37867
582458281,2082.0,school,Western Montessori,-122.06209,37.38513
1071651008,2303.0,cafe,Clocktower Coffee,-122.06166,37.39695
1323011584,2082.0,school,Tiger martial arts academy,-122.05279,37.37375
1572294518,2501.0,supermarket,Felipe's Market,-122.05237,37.37315
1572297515,2501.0,supermarket,Madras Groceries,-122.05547,37.37441
2600782845,2501.0,supermarket,Smart & Final,-122.07159,37.37877
3195064061,2303.0,cafe,Halftime Cafe,-122.05708,37.39939
3195064066,2303.0,cafe,Hangout Cafe,-122.05546,37.39992
3195064078,2303.0,cafe,Portal Cafe,-122.05853,37.39885
3836342234,2083.0,kindergarten,Little Prodigy Preschool,-122.06227,37.37707
4452639096,2303.0,cafe,Peet's Coffee,-122.05085,37.40282
4583807310,2303.0,cafe,KitchenSync,-122.07304,37.41823
4583807311,2303.0,cafe,Fishfood,-122.07039,37.41907
4583807314,2303.0,cafe,Maverick,-122.07106,37.42606
4583807315,2303.0,cafe,Beta C,-122.07211,37.42598
4583807316,2303.0,cafe,The Lunch Box,-122.07209,37.42681
4583807317,2303.0,cafe,Badaal,-122.07127,37.42694
5049994223,2303.0,cafe,Starbucks,-122.07078,37.37884
5871263418,2501.0,supermarket,Apna Bazar,-122.0522,37.37359
6682246885,2083.0,kindergarten,Sunny Day Care,-122.05518,37.36895
1306297057,2014.0,arts_centre,ARTis ANiMA Studio of Fine Arts,-122.125,37.4141
1740354019,2303.0,cafe,Starbucks,-122.12516,37.41307
2051505803,2501.0,supermarket,Grocery Outlet,-122.12451,37.41905
358838243,2082.0,school,The Kings Academy,-122.01357,37.38744
358858301,2082.0,school,Cogswell Polytechnical College,-122.02395,37.40813
487082152,2303.0,cafe,Bagel Street Cafe,-122.02971,37.38903
487082163,2501.0,supermarket,Lucky,-122.0294,37.38846
487082165,2303.0,cafe,Starbucks,-122.03035,37.38835
487771722,2303.0,cafe,iBagels Bakery and Cafe,-122.0147,37.41032
490455856,2303.0,cafe,Shaw's Sandwiches,-122.02994,37.38826
615947556,2303.0,cafe,Le Boulanger Sunnyvale/Mathilda,-122.03212,37.38524
2527515400,2081.0,university,Nine Star University of Health Sciences,-122.0077,37.38346
2527515416,2082.0,school,Christian Leadership Institute,-122.00776,37.38356
2607498435,2501.0,supermarket,Western Pacific Filipino Grocery,-122.00461,37.38899
3163954391,2303.0,cafe,Joy Wok,-122.0291,37.38884
3977606746,2303.0,cafe,Von’s Express Halal,-122.00323,37.38915
4330348989,2501.0,supermarket,Guadalajara Market,-122.02328,37.3971
4331564473,2501.0,supermarket,Mi Ranchito Produce,-122.02378,37.38782
4350668488,2402.0,motel,Travel Inn,-122.02974,37.39125
4627420411,2501.0,supermarket,Grocery Outlet,-122.00972,37.40325
5737709898,2501.0,supermarket,Taj Mahal Fresh Market,-122.00347,37.38913
8496018980,2084.0,college,Sacred Logos Resource Center,-122.00815,37.38357
319636034,2303.0,cafe,O.D.'s Kitchen,-121.56885,37.00805
319852929,2303.0,cafe,Cafe 152,-121.57621,37.01393
334793174,2303.0,cafe,5th Street Coffee & Roasting Co.,-121.56965,37.00846
358766561,2082.0,school,Glen View Elementary School,-121.57462,37.0002
358839289,2082.0,school,Gateway Center,-121.5723,37.00089
382382199,2014.0,arts_centre,,-121.56903,36.97341
1072154869,2014.0,arts_centre,Dabble Arts Center,-121.57052,37.0115
1199539316,2501.0,supermarket,Super Save Market,-121.57507,37.01426
1347165387,2303.0,cafe,Vida Con Nutrition,-121.56868,37.00736
1816505667,2501.0,supermarket,Arteaga's,-121.55817,37.00048
5183014228,2303.0,cafe,Garlic City Cafe,-121.56932,37.00777
8246176612,2083.0,kindergarten,State Preschool at Glen View,-121.57189,37.00048
358768067,2082.0,school,Inverness School,-122.01996,37.34189
957085286,2303.0,cafe,Bagel Street Cafe,-122.03269,37.33152
1704948708,2504.0,mall,Cupertino Village,-122.01539,37.33618
2418420316,2501.0,supermarket,99 Ranch,-122.01533,37.33674
2760019613,2303.0,cafe,Starbucks,-122.01473,37.3372
2856527717,2501.0,supermarket,Safeway,-122.03474,37.33618
3562593040,2303.0,cafe,Fantasia Coffee & Tea,-122.01587,37.33599
3807526196,2303.0,cafe,Starbucks,-122.03646,37.33679
3807526205,2303.0,cafe,Tea Era,-122.04031,37.33715
3815032269,2303.0,cafe,TenRen's Tea and Ginseng,-122.01491,37.33567
3815032287,2303.0,cafe,Happy Lemon,-122.01514,37.33623
6117580047,2303.0,cafe,Cafe,-122.00537,37.3326
8735329212,2303.0,cafe,Gong Cha,-122.04243,37.33977
8735359324,2501.0,supermarket,Namaste Plaza,-122.04245,37.33997
358776797,2082.0,school,Summit School,-121.96718,37.14272
339780971,2303.0,cafe,Peet's Coffee,-122.15927,37.43806
462480025,2303.0,cafe,Douce France,-122.15886,37.43894
1255955100,2303.0,cafe,Alumni Café,-122.16468,37.43084
1708076036,2303.0,cafe,Peet's Coffee,-122.17417,37.43098
1708076048,2303.0,cafe,Med Cafe,-122.17558,37.43196
6593596200,2303.0,cafe,Cantor Cafe,-122.17124,37.43266
332111124,2303.0,cafe,Gilroy Donut House,-121.58229,37.01376
332111181,2303.0,cafe,Starbucks,-121.58588,37.01435
332111900,2501.0,supermarket,Cardenas,-121.58306,37.0144
332112939,2501.0,supermarket,Nob Hill,-121.58508,37.0144
332113059,2303.0,cafe,House of Bagels,-121.58577,37.01435
358760625,2082.0,school,Adams School,-121.65661,37.0305
582550236,2303.0,cafe,First Street Coffee Exchange,-121.59428,37.01392
3773562653,2303.0,cafe,Togo's,-121.5952,37.01395
5183013520,2303.0,cafe,Sugar Plum Farm Cafe,-121.62768,37.00492
5183014022,2303.0,cafe,Got Cha!,-121.62688,37.00485
5183014023,2303.0,cafe,Villa Pasta & Pizza,-121.62758,37.00405
5183014025,2303.0,cafe,Skeel's Funnel Cake,-121.63019,37.0051
1280967736,2501.0,supermarket,Cardenas,-121.84319,37.34136
2510589067,2501.0,supermarket,Luck 7 Supermercado,-121.84811,37.34561
5443339829,2303.0,cafe,Starbucks,-121.84224,37.33942
7399600139,2082.0,school,Alpha Public Schools,-121.83571,37.34458
7402794645,2303.0,cafe,Pink Elephant Deli Café Cenaduria,-121.8484,37.34497
7439879249,2501.0,supermarket,La Plaza Market,-121.86225,37.34061
8400920137,2501.0,supermarket,Tropicana Foods,-121.84424,37.33805
8605611085,2082.0,school,Beauty & Elegance Academy,-121.84219,37.3383
2388067817,2501.0,supermarket,FoodMaxx,-121.9164,37.31756
7871426645,2303.0,cafe,Chromatic Coffee Co.,-121.90812,37.32075
347433822,2303.0,cafe,Starbucks,-121.91402,37.32326
373374203,2501.0,supermarket,Trader Joe’s San Jose Coleman Avenue,-121.90951,37.34102
577302799,2303.0,cafe,Starbucks,-121.9126,37.33232
2398941211,2303.0,cafe,Peet's Coffee,-121.913,37.33203
3458835630,2303.0,cafe,,-121.90448,37.33215
3478495355,2082.0,school,Saint Leo the Great School,-121.91078,37.32891
3602707769,2303.0,cafe,Starbucks,-121.91161,37.34141
3608158859,2303.0,cafe,HannaH,-121.90549,37.33156
3624657294,2303.0,cafe,Crema Coffee Roasting Company,-121.91177,37.33177
4880873532,2083.0,kindergarten,Yeshiva Preschool of Silicon Valley,-121.90631,37.33338
4886343819,2083.0,kindergarten,Little Lions Preschool,-121.91102,37.32926
6300726343,2303.0,cafe,Happy Lemon,-121.90638,37.34051
8740733655,2303.0,cafe,Egghead,-121.91224,37.34938
8245839018,2083.0,kindergarten,Bachrodt Preschool,-121.91333,37.36271
340314337,2303.0,cafe,Super Donut,-121.57638,37.01988
1113795573,2501.0,supermarket,Kachy Produce,-121.57696,37.02256
1509456703,2303.0,cafe,Auntie Anne's Soft Pretzels,-121.56368,37.02532
2572548874,2303.0,cafe,Erik's Deli,-121.56008,37.02075
4078079913,2402.0,motel,Ramada Limited Gilroy,-121.57003,37.02058
346427267,2501.0,supermarket,99 Ranch Market,-122.07658,37.37766
1570138528,2501.0,supermarket,Nob Hill Foods,-122.07635,37.37834
1579638308,2303.0,cafe,Peet's Coffee,-122.0763,37.37809
1729919565,2303.0,cafe,Starbucks,-122.08775,37.373
1729919570,2303.0,cafe,Tea Annie,-122.08768,37.3728
1770222913,2303.0,cafe,Peet's Coffee,-122.11795,37.37876
2403126770,2303.0,cafe,Ocha,-122.07671,37.37714
2600782818,2082.0,school,Early Music Minds,-122.07672,37.3768
2600782842,2303.0,cafe,Bowl of Heaven,-122.07457,37.37969
2619982668,2082.0,school,Kumon,-122.08799,37.3717
2619982697,2303.0,cafe,Red Berry Coffee Bar,-122.11472,37.37955
2641042494,2012.0,community_centre,Silicon Velley Meditation Center,-122.11893,37.37969
2641692571,2303.0,cafe,T4 - Tea For U,-122.11465,37.37984
4763481171,2303.0,cafe,Posh Bagel,-122.0749,37.3798
6755681653,2110.0,hospital,Sharp Fluidics,-122.12301,37.3753
8376592275,2083.0,kindergarten,Children's House of Los Altos,-122.12996,37.3819
8622684227,2303.0,cafe,K’s Crepes & Cafe,-122.0313,37.3512
343876694,2303.0,cafe,MoonBeans,-121.80251,37.23594
431891127,2501.0,supermarket,Lucky,-121.82926,37.25017
747662829,2303.0,cafe,Pure Tea Bar & Eatery,-121.8042,37.23628
1161981912,2501.0,supermarket,FoodMaxx,-121.79828,37.2553
1406268248,2501.0,supermarket,Marina Grocery,-121.83275,37.2788
1626101710,2303.0,cafe,Eric's Deli Cafe,-121.80436,37.24914
1744636503,2501.0,supermarket,Mercado California,-121.80776,37.25929
2607378267,2501.0,supermarket,Nob Hill,-121.83231,37.23765
2699785002,2303.0,cafe,Starbucks,-121.83095,37.23812
3921116036,2303.0,cafe,Starbucks,-121.80314,37.24865
5406084615,2303.0,cafe,Katea,-121.80213,37.24776
5406084617,2303.0,cafe,Sharetea,-121.80515,37.2511
7100399093,2303.0,cafe,Sam's Donuts,-121.83205,37.23816
7100431428,2303.0,cafe,Peet’s Coffee,-121.83226,37.23734
7534540329,2303.0,cafe,Starbucks,-121.79217,37.25616
7598925167,2081.0,university,Northeastern University Silicon Valley,-121.78634,37.25721
8328957033,2083.0,kindergarten,Edenvale Preschool Center,-121.80323,37.2631
8516020441,2083.0,kindergarten,Baldwin Preschool,-121.78302,37.22338
8567999335,2303.0,cafe,Rainbow Tea House,-121.83484,37.27934
8581964837,2082.0,school,Valley Christian High School,-121.82671,37.27632
8581964838,2082.0,school,Valley Christian Junior High School,-121.82671,37.27587
8619642392,2303.0,cafe,La Nube Nevería Cafetería,-121.80845,37.26045
8620805051,2084.0,college,Unitek College,-121.78232,37.23101
358760668,2082.0,school,Agnew School,-121.96468,37.39188
1255655331,2303.0,cafe,Peet's Coffee,-121.94599,37.39441
1704927437,2303.0,cafe,Starbucks,-121.96093,37.3862
4247809499,2303.0,cafe,Prolific Oven Bakery & Cafe,-121.9462,37.39474
6859149490,2303.0,cafe,Fantasia Tea Cafe,-121.94653,37.39536
6903107840,2303.0,cafe,Starbucks,-121.96047,37.38734
358817169,2082.0,school,,-121.55466,36.94801
358817176,2082.0,school,,-121.53494,36.96662
386843084,2501.0,supermarket,Pass Farmers Market,-121.41958,36.97099
917877733,2402.0,motel,Casa de Fruta Motel,-121.37916,36.99295
353696234,2504.0,mall,Westgate Mall,-121.98849,37.29224
358774640,2082.0,school,San Tomas School,-121.97635,37.26828
429184954,2303.0,cafe,Peet's Coffee,-121.99205,37.29047
429187144,2501.0,supermarket,Trader Joe's,-121.9942,37.29306
509707333,2303.0,cafe,Starbucks,-121.98223,37.28565
619015092,2303.0,cafe,Chromatic Coffee,-121.99446,37.32389
671794971,2303.0,cafe,Delicious Donuts & Deli,-121.97635,37.288
1199518555,2303.0,cafe,Starbucks,-121.99411,37.32248
1812680429,2083.0,kindergarten,MACC Moreland Area Community Center,-121.98614,37.30633
2120292037,2303.0,cafe,Bijan,-121.9747,37.32
2120292072,2501.0,supermarket,Lion,-121.97459,37.31906
2162251896,2501.0,supermarket,Sprouts Farmers Market,-121.99237,37.29272
2162260770,2303.0,cafe,Starbucks,-121.98863,37.29268
2162262736,2501.0,supermarket,Nob Hill Foods,-121.9786,37.28513
2162281152,2501.0,supermarket,Smart & Final,-121.99432,37.29359
2570745260,2303.0,cafe,Dolce Bella,-121.99593,37.29348
2655263941,2501.0,supermarket,Mitsuwa Marketplace,-121.9782,37.31495
2894793605,2501.0,supermarket,Walmart Neighborhood Market,-121.97318,37.32167
3659623886,2303.0,cafe,Starbucks,-121.9731,37.31993
4685660493,2303.0,cafe,Starbucks,-121.97793,37.30868
4685660792,2501.0,supermarket,Lakshmi Bazaar,-121.99495,37.30889
4706077390,2303.0,cafe,Rose Cafe & Donuts,-121.97706,37.30834
4770055625,2501.0,supermarket,Las Palmas,-121.97788,37.30558
4770074021,2501.0,supermarket,Slavic Shop,-121.97736,37.30606
5074801664,2082.0,school,The Harker School - Upper School,-121.97375,37.31832
6926714151,2303.0,cafe,Voyager Craft Coffee,-121.97241,37.3236
7048424615,2303.0,cafe,Zumplings,-121.98329,37.26413
8362968187,2303.0,cafe,Happy Lemon,-121.99703,37.2931
8373614862,2303.0,cafe,Teaspoon Saratoga,-121.97831,37.31534
8388606979,2303.0,cafe,Kung Fu Tea,-121.97485,37.31973
8392234414,2303.0,cafe,Corner Bakery Cafe,-121.99146,37.29177
8512184060,2303.0,cafe,N7 Draft Tea & Coffee,-121.97728,37.31564
8523392962,2083.0,kindergarten,Safari Kid,-121.99021,37.32338
8524009225,2083.0,kindergarten,Bright Horizons Stevens Creek,-121.98921,37.32372
8570769977,2303.0,cafe,Matcha Love,-121.97777,37.31473
8664244788,2303.0,cafe,Starbucks,-121.99604,37.29261
331094205,2303.0,cafe,Starbucks,-121.66433,37.14391
356611741,2303.0,cafe,Peet's Coffee,-121.65644,37.15097
511124252,2303.0,cafe,Starbucks,-121.6509,37.15572
7541843675,2082.0,school,Voices Acadamy Charter School,-121.65267,37.14941
428208392,2303.0,cafe,,-121.98342,37.38909
447936332,2084.0,college,Herguan University,-121.9968,37.38647
933941606,2303.0,cafe,Cafeteria,-121.98174,37.39197
988282027,2303.0,cafe,Mission City Cafe,-121.99482,37.3825
1246171252,2082.0,school,University of California Santa Clara Extension in Silicon Valley,-121.97079,37.38236
1998283898,2081.0,university,Medical Center – University of East-West Medicine,-121.99711,37.38647
2604149621,2501.0,supermarket,New Wing Yuan Market,-121.99694,37.39757
2604149622,2303.0,cafe,Quickly,-121.99694,37.39763
2607395530,2303.0,cafe,Bagel Place Cafe,-121.99522,37.38461
2686015539,2082.0,school,California Reformed University,-121.99099,37.38305
2686109543,2303.0,cafe,Nutri Plus Tea,-121.99496,37.38
2686109550,2303.0,cafe,iChaat Cafe,-121.99504,37.38
3640211825,2501.0,supermarket,Bharat Bazaar,-121.99727,37.36736
6781946686,2303.0,cafe,Starbucks,-121.97422,37.39645
8176961097,2012.0,community_centre,Sri Kamakshi Community Center,-121.96762,37.36834
8455769426,2501.0,supermarket,Nob Hill Foods,-121.99503,37.36715
8512665353,2083.0,kindergarten,Monticello Academy,-121.99081,37.3678
8512665355,2082.0,school,Santa Clara Christian School,-121.9917,37.36724
358760684,2082.0,school,Air Point School,-121.84877,37.44852
1700633019,2303.0,cafe,Juice City,-121.90308,37.44663
1700633025,2501.0,supermarket,Smart & Final,-121.90251,37.44764
1700633026,2303.0,cafe,Starbucks,-121.9032,37.44663
3213621500,2501.0,supermarket,Lion Supermarket,-121.91025,37.4565
8328564486,2083.0,kindergarten,KinderCare,-121.89296,37.44576
345476438,2303.0,cafe,Starbucks,-122.09642,37.42181
358764512,2082.0,school,De Anza School,-122.11719,37.43494
358772222,2082.0,school,Our Lady of the Rosary School,-122.1233,37.42688
486624281,2303.0,cafe,Palo Alto Cafe,-122.12958,37.43394
1477387007,2082.0,school,International School of the Peninsula,-122.12313,37.42637
2095327716,2303.0,cafe,Plaza deli,-122.09989,37.42972
2399562236,2082.0,school,Young Builders,-122.12903,37.4334
2697101133,2303.0,cafe,Bill's Cafe,-122.12296,37.4296
4583807295,2303.0,cafe,Bridget’s Market,-122.09049,37.42176
4583807296,2303.0,cafe,Heritage,-122.0875,37.42204
4583807297,2303.0,cafe,Cloud Cafe,-122.0874,37.42301
4583807298,2303.0,cafe,Big Table,-122.08751,37.42273
4583807299,2303.0,cafe,WAN,-122.08852,37.42263
5215520011,2303.0,cafe,Teaspoon,-122.12941,37.43409
8512288132,2303.0,cafe,Ada's Cafe,-122.11316,37.42219
976494423,2303.0,cafe,Starbucks,-122.01731,37.35654
2050793995,2083.0,kindergarten,Gymboree Play & Music of Sunnyvale,-122.02123,37.35928
2663431544,2012.0,community_centre,Athidhi Banquet Hall,-122.01597,37.36628
2663431570,2082.0,school,Boost Up Kids Academy,-122.01518,37.36546
2663431885,2501.0,supermarket,Wolfe India Bazar,-122.01693,37.36628
5621056929,2014.0,arts_centre,NorCal Music & Arts Center,-122.01918,37.358
343600298,2501.0,supermarket,Sprouts Farmers Market,-122.03024,37.36754
368173523,2012.0,community_centre,Sunnyvale Community Center,-122.02529,37.35811
439200967,2303.0,cafe,The Bean Scene Cafe,-122.03008,37.37634
566055916,2303.0,cafe,Coffee-n-More,-122.02975,37.37737
582457399,2501.0,supermarket,Target P-Fresh,-122.03244,37.37336
647650154,2303.0,cafe,Starbucks/ Target Cafe,-122.03254,37.37434
2007289654,2303.0,cafe,Sunnyvale Gallery Cafe,-122.03457,37.36882
2125918594,2501.0,supermarket,Trader Joe's,-122.03588,37.36797
2203769868,2303.0,cafe,Peet's Coffee,-122.03324,37.3679
3369427811,2303.0,cafe,Philz Coffee,-122.03128,37.37738
4027092746,2303.0,cafe,Starbucks,-122.03159,37.37641
5620033650,2303.0,cafe,Happy Lemon,-122.0245,37.36195
281136405,2303.0,cafe,Starbucks Coffee Company - Maquarrie Hall,-121.88182,37.33378
358774343,2082.0,school,Saint Marys School,-121.8819,37.32939
3622610707,2303.0,cafe,Vegan Donut & Cafe,-121.88132,37.34077
3624970701,2084.0,college,Bay Area College of Nursing,-121.87589,37.34286
4883487534,2082.0,school,DCP El Primero High School,-121.87306,37.31621
4883487535,2082.0,school,DCP El Camino Middle School,-121.87248,37.31648
5315598110,2501.0,supermarket,Walmart Neighborhood Market,-121.8711,37.31621
6399829610,2303.0,cafe,Starbucks,-121.88014,37.33677
7121789354,2012.0,community_centre,Software & Computer Engineering Society SJSU,-121.88145,37.33687
7121789356,2012.0,community_centre,Computer Science Club SJSU,-121.8818,37.33368
7121798608,2303.0,cafe,Tea Degree,-121.8811,37.33638
7571889680,2083.0,kindergarten,Child Development Center,-121.8777,37.33289
7824394608,2501.0,supermarket,Arteaga's Food Center,-121.88233,37.31875
7847854386,2303.0,cafe,Starbucks,-121.87241,37.31536
8057409712,2303.0,cafe,Trine's Cafe,-121.8789,37.32108
7360494842,2303.0,cafe,T4 Almaden,-121.84534,37.21027
7360494847,2083.0,kindergarten,Tulip Kids Academy,-121.84636,37.21116
529144378,2303.0,cafe,Starbucks,-122.07768,37.41576
3195103138,2303.0,cafe,Cafe Moma,-122.08233,37.42037
3544924415,2303.0,cafe,Cloud Cafe,-122.07754,37.41443
4583807300,2303.0,cafe,Costa,-122.08351,37.42001
4583807301,2303.0,cafe,Threads,-122.08105,37.41934
4583807308,2303.0,cafe,Masa,-122.07988,37.41782
4583807309,2303.0,cafe,MiXiT Charleston,-122.07687,37.42003
4583807312,2303.0,cafe,Backyard,-122.07712,37.42124
4583807313,2303.0,cafe,Pixel,-122.07564,37.42235
358776601,2082.0,school,Stichter School,-122.01051,37.29744
435104547,2501.0,supermarket,Marukai,-122.01855,37.32188
2011558989,2303.0,cafe,Roasted Coffee Bean,-122.0067,37.32276
2131880791,2303.0,cafe,Starbucks,-121.99998,37.28013
2299920951,2303.0,cafe,Starbucks,-122.01198,37.30976
2622899127,2303.0,cafe,verde,-122.01672,37.32232
2629332047,2303.0,cafe,Beija Flor,-122.01789,37.3225
3710129262,2303.0,cafe,Tpumps,-122.0227,37.32322
3812767036,2303.0,cafe,TP Tea,-122.02363,37.31128
3977017757,2303.0,cafe,Tea Top,-122.01259,37.30874
5233334640,2303.0,cafe,Cafe LaTTea,-122.01226,37.32325
8527334835,2083.0,kindergarten,Safari Kid Cupertino,-122.02523,37.32228
8645408737,2303.0,cafe,Tan-Cha,-122.01149,37.32533
2561939893,2303.0,cafe,Max's Opera Cafe,-122.17289,37.4428
3243900269,2303.0,cafe,Starbucks,-122.17177,37.44364
4936211822,2303.0,cafe,Neman Marcus Cafe,-122.17262,37.44126
356614205,2303.0,cafe,88 Keys Cafe,-121.62923,37.13379
1506099723,2501.0,supermarket,Rocca's Market,-121.61101,37.08539
358769582,2082.0,school,Llagas School,-121.7469,37.14992
358795559,2082.0,school,Daves Avenue Elementary School,-121.98077,37.24007
1313317149,2303.0,cafe,Starbucks,-122.04647,37.37861
1843364371,2501.0,supermarket,Zanotto's Market Sunnyvale,-122.04956,37.35018
1843364384,2501.0,supermarket,European Gourmet Delicatessen,-122.04948,37.35096
1843364386,2501.0,supermarket,New India Bazaar,-122.04947,37.3508
2225535975,2303.0,cafe,Bikaner Sweets Chaat Cafe,-122.04157,37.36915
8531287691,2082.0,school,Resurrection Catholic School,-122.04255,37.34954
1345335449,2303.0,cafe,The Coffee Cup,-121.8281,37.3817
4103619352,2303.0,cafe,Starbucks,-121.82805,37.3661
7399808758,2501.0,supermarket,Santa Fe,-121.82153,37.35927
7571543302,2501.0,supermarket,Cardenas,-121.8183,37.35797
8246226095,2083.0,kindergarten,Mandala Children’s House,-121.82364,37.3762
8689928865,2082.0,school,Voices Mount Pleasant,-121.81562,37.36012
315422020,2405.0,hostel,Welch Hurst Youth Hostel,-122.07261,37.23946
358764192,2082.0,school,Country Day School (historic),-121.9519,37.22717
1077855956,2303.0,cafe,Shmoozers,-121.96196,37.25247
1077867862,2303.0,cafe,Starbucks,-121.96445,37.23566
1078357957,2501.0,supermarket,Trader Joe's,-121.95768,37.24458
1161594401,2303.0,cafe,Starbucks,-121.94623,37.27069
1219353018,2303.0,cafe,Peet's Coffee,-121.961,37.23491
1680552195,2501.0,supermarket,Lunardi's,-121.96246,37.23446
1680552206,2501.0,supermarket,Whole Foods Market,-121.96152,37.23613
2494393481,2501.0,supermarket,Jiffy Market,-121.96096,37.24093
2494395228,2303.0,cafe,Lou's Coffee Shop,-121.96106,37.24066
2570264373,2303.0,cafe,Blvd Cafe,-121.96057,37.2435
3272065314,2303.0,cafe,Los Gatos Cafe,-121.95935,37.2406
3272065315,2501.0,supermarket,Nob Hill Foods,-121.95973,37.24034
3403086196,2082.0,school,Pat Miller Music School,-121.96254,37.26255
3403138795,2303.0,cafe,Purple Onion Cafe,-121.96267,37.26222
3622682435,2303.0,cafe,Philz Coffee,-121.9635,37.23595
4139637684,2303.0,cafe,Starbucks,-121.95252,37.25372
4279519150,2013.0,nursing_home,Woodlands Healthcare Center,-121.95252,37.25137
4962827025,2083.0,kindergarten,Mariposa Montessori,-121.96434,37.22805
6565280599,2012.0,community_centre,Addison Penzak Jeish Community Center,-121.96145,37.25329
6565280600,2082.0,school,Yavneh Day school,-121.96154,37.25312
8328553378,2083.0,kindergarten,Tri Montessori School,-121.96887,37.27342
358767186,2082.0,school,Harker School,-122.14524,37.44716
3299432565,2303.0,cafe,Starbucks,-122.12625,37.4479
8246658022,2082.0,school,Hope Technology School,-122.1179,37.44746
8501608229,2303.0,cafe,Baylands Cafe,-122.11613,37.4537
461671351,2501.0,supermarket,Lunardi's,-121.89733,37.25655
506819212,2303.0,cafe,Starbucks,-121.89318,37.2748
1925610616,2501.0,supermarket,Grocery Outlet,-121.90729,37.27079
2296215344,2303.0,cafe,Coffee Net,-121.89695,37.25453
3463502783,2082.0,school,Carden Academy,-121.89786,37.24954
3463502784,2082.0,school,AppleSeed Almaden Montessori School,-121.89738,37.24909
4511551061,2083.0,kindergarten,Explorer Preschool,-121.89712,37.27588
7094840028,2303.0,cafe,Jasmine Kocha,-121.90652,37.26887
8377042752,2303.0,cafe,Big E Cafe,-121.90877,37.25276
358762951,2082.0,school,Cambrian School,-121.93662,37.27272
358767845,2012.0,community_centre,Houge Park Center,-121.94163,37.25689
358774152,2082.0,school,Saint Frances Cabrini School,-121.93625,37.26113
1155857946,2303.0,cafe,Starbucks,-121.91881,37.26322
1187467599,2303.0,cafe,Starbucks,-121.92266,37.2756
1925626241,2501.0,supermarket,Lucky,-121.93257,37.2629
1931723146,2501.0,supermarket,Smart & Final,-121.9163,37.26482
1931736081,2501.0,supermarket,International Food Bazaar,-121.93308,37.27205
8558062828,2303.0,cafe,,-121.93056,37.25964
1234939398,2303.0,cafe,Starbucks,-121.77508,37.23221
1234939402,2501.0,supermarket,Lucky,-121.77446,37.23275
4796196522,2084.0,college,Carrington College San Jose,-121.77668,37.24838
8232899155,2501.0,supermarket,Grocery Outlet,-121.77436,37.22732
8246728407,2082.0,school,The Academy,-121.74887,37.19134
8288098803,2303.0,cafe,Bernal Bagels & Donuts,-121.77483,37.2275
358777481,2082.0,school,Tripp School,-121.87766,37.35096
1963557201,2501.0,supermarket,Nijiya Market,-121.89351,37.3491
3534520305,2303.0,cafe,@YC,-121.89374,37.35235
3539618863,2303.0,cafe,Edible Arrangements,-121.89586,37.35133
3567735107,2014.0,arts_centre,The Arsenal,-121.89401,37.34888
4885837994,2303.0,cafe,Sinceretea,-121.8919,37.35281
8249929911,2083.0,kindergarten,Lotus Preschool,-121.89524,37.34962
8581736821,2082.0,school,The Hub,-121.86524,37.3618
358767208,2082.0,school,Harney School,-121.47216,37.40521
1710414058,2303.0,cafe,Peet's Coffee,-122.15969,37.44197
2884597670,2083.0,kindergarten,Downtown Children Center (PACCC-DCC),-122.15922,37.44705
3093753200,2303.0,cafe,Philz Coffee,-122.16154,37.44207
5446895128,2303.0,cafe,Sharetea,-122.16093,37.44532
5461252355,2303.0,cafe,Joe & The Juice,-122.15888,37.44848
7651129398,2303.0,cafe,Blue Bottle Coffee,-122.1594,37.44752
8201221634,2083.0,kindergarten,The Learning Center,-122.15107,37.44289
1256474422,2303.0,cafe,Café Venetia,-122.16522,37.44347
5417603220,2303.0,cafe,Red Brick Cafe,-122.1624,37.44529
358772998,2082.0,school,Portola School,-122.11024,37.39438
433566474,2303.0,cafe,Starbucks,-122.09471,37.39083
943845219,2082.0,school,GanTorah Preschool,-122.09946,37.39592
1643834661,2303.0,cafe,Starbucks,-122.09434,37.41146
1834844699,2303.0,cafe,Pearl Coffee and Tea,-122.10665,37.40293
2300367852,2303.0,cafe,Starbucks,-122.11237,37.40273
2619982716,2082.0,school,School for Independant Learning,-122.11404,37.3994
4317774023,2501.0,supermarket,Sprouts Farmers Market,-122.11375,37.40278
4476066346,2303.0,cafe,Teaspoon,-122.11444,37.40124
4609012005,2303.0,cafe,Nektar Juice Bar,-122.1131,37.40147
4887044206,2501.0,supermarket,Mercado Marlen,-122.10643,37.40403
4887044373,2083.0,kindergarten,KinderCare Mountain View,-122.10106,37.39478
5031346686,2012.0,community_centre,The View Teen Center,-122.09286,37.39826
5110357106,2501.0,supermarket,Safeway,-122.09447,37.41119
5731405441,2082.0,school,The Reading Clinic,-122.1131,37.40075
7725896473,2303.0,cafe,Onemore,-122.10709,37.40676
3563994297,2303.0,cafe,Starbucks,-121.84464,37.37413
3563994303,2303.0,cafe,Starbucks,-121.84232,37.37136
4591774146,2303.0,cafe,Tapioca Express,-121.8507,37.36531
5125341638,2501.0,supermarket,Cardenas,-121.84221,37.37166
5761809857,2082.0,school,KIPP San Jose Collegiate,-121.8595,37.36986
6040742862,2303.0,cafe,A Bite of Wyoming,-121.84536,37.35793
6040754436,2110.0,hospital,Regional Medical Center of San Jose,-121.84921,37.36252
6383660412,2501.0,supermarket,Mi Ranchito Produce,-121.8452,37.35817
6383699035,2501.0,supermarket,Chavez Supermarket,-121.84974,37.36739
7344912847,2501.0,supermarket,,-121.83369,37.35958
8057328573,2501.0,supermarket,Lucky 7 Supermarket,-121.8636,37.35688
8060126722,2303.0,cafe,Co Hong Cafe,-121.86083,37.35888
8391841811,2303.0,cafe,Oddi's Cafe,-121.85544,37.35336
8499123488,2303.0,cafe,Milq Tea Lounge,-121.85177,37.36554
8594688031,2082.0,school,DCP Alum Rock High School,-121.85867,37.36758
4591757038,2303.0,cafe,Starbucks,-121.8619,37.38727
7236192541,2303.0,cafe,Tra Temptation,-121.84838,37.39939
314819840,2012.0,community_centre,Hoover Community Center,-121.92418,37.33342
439234263,2303.0,cafe,Starbucks,-121.93266,37.3444
936102098,2303.0,cafe,Starbucks,-121.93678,37.34532
2116907124,2082.0,school,Western Seminary - San Jose Campus,-121.93436,37.3516
3540148721,2303.0,cafe,Starbucks,-121.92209,37.35049
3548898922,2303.0,cafe,Starbucks,-121.93668,37.35212
3613960690,2303.0,cafe,Tea Plus,-121.93437,37.34496
3646555434,2303.0,cafe,Starbucks,-121.92409,37.3342
3678037158,2303.0,cafe,Skinny Monkey,-121.93318,37.3446
4886372572,2082.0,school,Rabbi Joseph and Rosalie Gitin Religious School,-121.92081,37.3402
4886372573,2083.0,kindergarten,Temple Emanu-El Preschool,-121.92068,37.34009
5326951412,2082.0,school,Nurse Builders Academy,-121.94024,37.36
8177828784,2501.0,supermarket,San Carlos Market,-121.92419,37.32398
8260807223,2083.0,kindergarten,Neighborhood Christian Preschool,-121.922,37.31582
8604433237,2303.0,cafe,Starbucks,-121.93861,37.33962
358774340,2082.0,school,Saint Marys School,-121.98412,37.22383
598640976,2303.0,cafe,Los Gatos Roasting Company,-121.98305,37.22199
1169483516,2303.0,cafe,Starbucks,-121.97973,37.23031
2382902269,2303.0,cafe,Dolce Spazio,-121.98217,37.22668
2637755103,2303.0,cafe,Fleur de Cocoa,-121.98353,37.22373
2637755110,2303.0,cafe,Great Bear Coffee,-121.98374,37.22321
2637755134,2303.0,cafe,Le Boulanger,-121.98337,37.22204
4296713383,2504.0,mall,Old Town Center,-121.98218,37.22291
4896284902,2012.0,community_centre,Los Gatos Saratoga Adult Recreation Center,-121.97765,37.22085
4896285245,2303.0,cafe,Cafe Dio,-121.97733,37.22127
4896285246,2012.0,community_centre,Los Gatos Masonic Temple,-121.97797,37.22138
4896285247,2012.0,community_centre,Los Gatos Saratoga Youth Recreation Center,-121.97839,37.22148
4896285248,2012.0,community_centre,Los Gatos Saratoga Recreation Department,-121.9785,37.22145
4908231767,2083.0,kindergarten,Sunday School,-121.97644,37.22052
4919874017,2303.0,cafe,Purple Onion Cafe,-121.9808,37.22117
6625305331,2501.0,supermarket,Safeway,-121.97908,37.23142
309331540,2501.0,supermarket,Lucky,-121.99811,37.35397
358772929,2082.0,school,Pomeroy Elementary School,-121.9869,37.348
358838656,2082.0,school,Saint Lawrence Elementary and Middle School,-121.99551,37.35898
358838668,2082.0,school,Valley Continuation High School,-121.99524,37.35466
599098661,2303.0,cafe,,-121.99484,37.33844
599100867,2082.0,school,Kinder Care,-121.99344,37.33944
599326229,2303.0,cafe,Starbucks,-121.99732,37.35296
599326232,2303.0,cafe,Java Town,-121.97687,37.35195
1311402909,2082.0,school,Little Star Learning Center,-121.99403,37.33636
2658424321,2501.0,supermarket,Hankook,-122.00134,37.35159
4562827119,2303.0,cafe,Erik's Deli,-121.97772,37.33927
5125066001,2082.0,school,,-121.98658,37.33428
5172034723,2303.0,cafe,Starbucks,-121.9749,37.3381
6110253200,2303.0,cafe,177 Courtyard Café,-121.99772,37.33626
6138652374,2110.0,hospital,114 Ambulatory Surgery,-121.99891,37.33664
6138652375,2110.0,hospital,112 Patient Financial Services,-121.999,37.33623
6138652376,2110.0,hospital,110 Volunteer Services,-121.9991,37.33623
6138652377,2110.0,hospital,125 Conference Room,-121.99951,37.33612
6138652395,2110.0,hospital,120 Nuclear Medicine,-121.99951,37.33646
6138652396,2110.0,hospital,122 MRI,-121.99964,37.33642
6138652397,2110.0,hospital,126 Intensive Care Unit Rooms 1260–1269,-121.99961,37.3359
6138652398,2110.0,hospital,128 Transitional Care Unit Rooms 1280–1289,-121.99961,37.33579
6138652399,2110.0,hospital,135 Telemetry/ Stroke Unit Rooms 1350–1372,-121.99955,37.33548
6138652400,2110.0,hospital,138 Pharmacy/Discharge,-121.99925,37.33562
6138652401,2110.0,hospital,100 Emergency,-121.99854,37.33543
6138652402,2110.0,hospital,104 Imaging/Radiology,-121.99868,37.33579
6138652403,2110.0,hospital,106 Gift Gallery,-121.99891,37.33589
6138652404,2110.0,hospital,B02 Lost and Found,-121.99857,37.33528
6138652422,2110.0,hospital,B06 Conference Room,-121.99942,37.33584
6138652423,2110.0,hospital,B08 Cafeteria,-121.99964,37.33574
6313249954,2303.0,cafe,Big Mug Coffee Roaster,-121.98099,37.35155
6964046399,2082.0,school,Santa Clara Beauty College,-121.97465,37.35105
8177961443,2303.0,cafe,Jin’s Bakery & Coffee,-121.97589,37.35315
8458894617,2501.0,supermarket,Tiranga Super Market,-121.98917,37.3528
8559128532,2082.0,school,Live Oak Academy,-121.96932,37.34163
922296124,2501.0,supermarket,Lucky,-121.85381,37.27606
1199539036,2303.0,cafe,Peet's Coffee,-121.87633,37.24987
1769305741,2303.0,cafe,Starbucks,-121.84241,37.27614
2107857671,2303.0,cafe,House of Bagels,-121.87925,37.25044
2572195811,2501.0,supermarket,Lucky,-121.85732,37.24926
3157261389,2303.0,cafe,Starbucks,-121.85758,37.27486
4289326624,2501.0,supermarket,Sprouts Farmers Market,-121.87815,37.26189
4293813390,2303.0,cafe,TLeaf Teapresso,-121.85791,37.24856
4293847889,2303.0,cafe,Starbucks,-121.85788,37.24911
4295519591,2303.0,cafe,Hubs Coffee,-121.84434,37.25009
4308078490,2303.0,cafe,Starbucks,-121.87698,37.25302
4868754887,2303.0,cafe,Starbucks,-121.86257,37.25125
4868754888,2303.0,cafe,Jazen Tea,-121.86251,37.25142
7062850738,2303.0,cafe,Starbucks,-121.87336,37.25894
8180652989,2501.0,supermarket,Chavez Supermarket,-121.84509,37.24927
8369779481,2303.0,cafe,Kay’s Tea House,-121.85063,37.27407
8391972932,2303.0,cafe,Tastea Communications Hill,-121.85153,37.2752
8406188259,2303.0,cafe,Main St. Bagels,-121.85695,37.24969
8525652576,2303.0,cafe,85°C,-121.85279,37.27594
8623181031,2303.0,cafe,iJAVA Cafe,-121.87933,37.27338
6559717047,2303.0,cafe,Joe & The Juice,-122.17069,37.44287
961807258,2303.0,cafe,Toast Cafe & Grill,-121.89184,37.30665
2669556285,2303.0,cafe,Peet's Coffee,-121.90036,37.30776
3539030768,2303.0,cafe,Elva's Coffee Stop,-121.88795,37.29061
4424116803,2501.0,supermarket,Arteagas Food Center,-121.90408,37.3123
4714747788,2501.0,supermarket,Safeway,-121.89071,37.30594
2620441931,2501.0,supermarket,Grocery Outlet,-121.884,37.3383
3559807117,2303.0,cafe,Towers Cafe,-121.89432,37.33782
3634866137,2303.0,cafe,Tea Village,-121.88565,37.33873
4880523231,2083.0,kindergarten,Little Einstein’s Montessori Preschool,-121.88618,37.33875
4883501825,2084.0,college,TTL College,-121.88359,37.33991
5681157313,2303.0,cafe,KJ’s Cafe,-121.88543,37.33786
6452644729,2012.0,community_centre,San José Bike Clinic,-121.88822,37.33912
358858239,2082.0,school,Heald College - San Jose,-121.89573,37.41153
617019748,2303.0,cafe,Starbucks,-121.89929,37.41612
1700616945,2501.0,supermarket,99 Ranch Market,-121.9169,37.42275
2153998271,2303.0,cafe,Starbucks,-121.92161,37.42166
3330495616,2303.0,cafe,Starbucks,-121.92093,37.42829
5080242674,2501.0,supermarket,Save Mart,-121.91153,37.42863
6681775713,2303.0,cafe,Peet's Coffee,-121.89809,37.4345
6681812689,2501.0,supermarket,Marina Grocery,-121.90132,37.43311
6681831194,2303.0,cafe,Starbucks,-121.9004,37.43479
6681844680,2110.0,hospital,Calaveras Veterinary Clinic,-121.90913,37.42859
6681849994,2303.0,cafe,Starbucks,-121.89788,37.4348
6682078844,2303.0,cafe,Erik's DeliCafé,-121.89894,37.43531
6683023824,2303.0,cafe,Raw Sugar,-121.91314,37.42613
8388670220,2303.0,cafe,Pepper Lunch USA,-121.91635,37.42188
8416812579,2501.0,supermarket,Trader Joe's,-121.89945,37.41232
8459295385,2303.0,cafe,Bon Appetit @ Bright Horizons,-121.91504,37.41821
8500961394,2303.0,cafe,Aiyah T House,-121.903,37.41267
8559236261,2082.0,school,Opportunity Youth Academy Sobrato,-121.91648,37.42869
8559254961,2082.0,school,Silicon Valley Surgi-Tech Institute,-121.90361,37.40591
8766337816,2303.0,cafe,Tea Yomi,-121.9082,37.42903
358768483,2082.0,school,Jollyman School,-122.03802,37.31133
1218545831,2303.0,cafe,Peet's Coffee,-122.03827,37.32321
1974353562,2303.0,cafe,Starbucks Reserve,-122.03275,37.32198
2622899125,2303.0,cafe,Tapioca Express,-122.03412,37.32453
2814548826,2303.0,cafe,Bitter+Sweet,-122.03144,37.31823
3808428945,2501.0,supermarket,Marina Foods,-122.03376,37.32465
3814942152,2501.0,supermarket,99 Ranch Market,-122.0338,37.31699
3814942153,2303.0,cafe,Vampire Penguin,-122.03366,37.31666
3814942165,2501.0,supermarket,Sprouts Farmers Market,-122.03348,37.32194
3814942187,2303.0,cafe,Philz Coffee,-122.03465,37.32258
4370678952,2501.0,supermarket,rose market,-122.03341,37.31262
7188286616,2303.0,cafe,Coffee Society,-122.02898,37.31813
2309429643,2303.0,cafe,Cafe Rococo,-122.04558,37.32085
2309429644,2303.0,cafe,Le Cafe,-122.04521,37.32073
2621484199,2303.0,cafe,Coffee Society,-122.04735,37.32323
3808864443,2084.0,college,Institute for the Study of Western Civilization,-122.0509,37.3218
5742332062,2303.0,cafe,Starbucks,-122.05483,37.32313
358770852,2082.0,school,Miramonte School,-122.08718,37.39716
4392976740,2303.0,cafe,Big Bites Vietnamese Eatery,-122.0796,37.40246
4392976741,2303.0,cafe,California Mochi Mini,-122.0798,37.40252
4395482134,2303.0,cafe,Regal Bagel Cafe,-122.07948,37.40265
2845366619,2082.0,school,Montessori Garden Academy Preschool & Day Care,-121.78323,37.31764
3373755207,2303.0,cafe,Evergreen Coffee Company,-121.77363,37.31424
4665108094,2303.0,cafe,Starbucks,-121.77191,37.30064
4665149990,2501.0,supermarket,New Seasons Market,-121.78068,37.28793
4665254389,2501.0,supermarket,Lucky,-121.79019,37.31511
5315598943,2501.0,supermarket,Walmart Neighborhood Market,-121.77307,37.31356
5529577071,2083.0,kindergarten,,-121.78801,37.30609
6965784683,2501.0,supermarket,Manila Oriental Market,-121.79503,37.32419
8178537930,2501.0,supermarket,Super India,-121.79248,37.31336
8195174713,2303.0,cafe,Peacock Indian Cafe,-121.7929,37.31335
8404082814,2083.0,kindergarten,Safari Kid,-121.77071,37.30077
8573333111,2303.0,cafe,Starbucks,-121.79411,37.31399
8573396620,2303.0,cafe,Tastea Evergreen,-121.79343,37.31533
8616867377,2082.0,school,East Valley Christian School,-121.79898,37.32743
358838328,2082.0,school,University of California Santa Clara Extension Facility at Tech Mart,-121.97663,37.40614
4570896289,2303.0,cafe,Pavillion,-121.98282,37.4046
4876893915,2303.0,cafe,Xiang Xiang Noodle,-121.99509,37.40413
7413032778,2110.0,hospital,Field Respite Center,-121.97542,37.40457
487639344,2501.0,supermarket,New India Bazaar,-121.963,37.35289
599326230,2303.0,cafe,Starbucks,-121.96776,37.3518
611542090,2501.0,supermarket,Smart & Final,-121.9611,37.35303
2195192134,2501.0,supermarket,Patel Brothers,-121.96036,37.35303
3379039894,2501.0,supermarket,Sprouts Farmers Market,-121.96228,37.34998
3456741593,2303.0,cafe,Peet's Coffee,-121.96019,37.35208
8415988457,2501.0,supermarket,Arteagas Food Center,-121.95904,37.36071
8540246598,2012.0,community_centre,Eritrean Community Center;ማሕበር ምትሕግጋዝ ኤርትራውያን,-121.95893,37.34333
8568374584,2082.0,school,Santa Clara Adult Education,-121.95735,37.34604
8585280322,2082.0,school,Automotive Training Center,-121.95854,37.36603
445291449,2501.0,supermarket,Lion Market,-121.85385,37.33153
3560256373,2501.0,supermarket,Maxim Market,-121.85619,37.33424
3560256377,2303.0,cafe,Lẩu Dê Bình Minh,-121.85696,37.33216
3560256861,2501.0,supermarket,,-121.85246,37.33294
3700431844,2303.0,cafe,Bobo Drinks,-121.85909,37.32969
5660971992,2303.0,cafe,,-121.85773,37.33157
6435975128,2303.0,cafe,T4 San Jose,-121.85793,37.332
8356897635,2303.0,cafe,Teahee,-121.85726,37.33115
8356930858,2303.0,cafe,Tea Lyfe Drinks,-121.85761,37.33251
8356930859,2303.0,cafe,The Sweet Corner Cafe,-121.8579,37.33277
8424083721,2303.0,cafe,Lucky Tea,-121.85586,37.33028
8620772876,2082.0,school,College Connection Academy,-121.8486,37.32034
1561616296,2303.0,cafe,Starbucks,-121.94919,37.32095
1561616311,2303.0,cafe,Peet’s Coffee,-121.94844,37.31935
1561616317,2303.0,cafe,Cocola Bakery & Cafe,-121.9481,37.32196
1814092133,2081.0,university,Five Branches University,-121.94781,37.31795
2108118539,2501.0,supermarket,The Olin Avenue Market,-121.94833,37.32064
2109111732,2303.0,cafe,Blue Bottle Coffee,-121.94784,37.32021
2109123980,2303.0,cafe,Fantasia Coffee & Tea,-121.94758,37.31951
2109337126,2303.0,cafe,Left Bank Brasserie,-121.94816,37.31978
3137935929,2303.0,cafe,Starbucks,-121.96612,37.32834
3137935930,2501.0,supermarket,Lucky,-121.96679,37.32918
3700772607,2303.0,cafe,,-121.9441,37.32611
4878855138,2083.0,kindergarten,Action Day Primary Plus,-121.94816,37.31539
5680651599,2303.0,cafe,Coffee Factory,-121.96851,37.32403
8512584067,2083.0,kindergarten,Santana Care Montessori School,-121.95168,37.32087
8609402896,2082.0,school,Stratford School,-121.9516,37.33355
6543419603,2303.0,cafe,Starbucks,-121.81194,37.33105
8258737308,2082.0,school,Most Holy Trinity School,-121.82697,37.33102
8415974019,2501.0,supermarket,Safeway,-121.81092,37.33146
357522348,2501.0,supermarket,Trader Joe's,-121.93258,37.28837
357524353,2501.0,supermarket,Whole Foods Market,-121.93041,37.29296
1079536705,2303.0,cafe,House of Bagels,-121.93128,37.29395
1155855597,2303.0,cafe,Starbucks,-121.9304,37.29281
1187479322,2303.0,cafe,Starbucks,-121.93092,37.29467
2629448204,2303.0,cafe,Coffee Society,-121.93418,37.28787
6307708477,2303.0,cafe,Barefoot Coffee,-121.93204,37.29086
7387271606,2012.0,community_centre,Bascom Community Center,-121.93116,37.30744
8617296056,2082.0,school,HeartShare Training Services,-121.93225,37.30002
358838611,2082.0,school,West Valley Elementary School,-121.95885,37.28522
1145574420,2303.0,cafe,Orchard Valley Coffee,-121.94373,37.28716
1145574478,2303.0,cafe,Starbucks,-121.94499,37.28717
2494529556,2303.0,cafe,Spread,-121.9468,37.28722
8566571025,2082.0,school,Saint Lucy Parish School,-121.94846,37.2814
8748792723,2082.0,school,DaVinci Academy,-121.95104,37.28757
8748792872,2082.0,school,Old Orchard Middle School,-121.95134,37.28909
8748792873,2082.0,school,SAGE Academy,-121.95127,37.28935
8748792884,2082.0,school,Casa di Mir Middle School,-121.95077,37.28817
8748792886,2082.0,school,Santa Clara County Office of Education Post-Senior Programs,-121.95044,37.28772
8748792892,2084.0,college,West Valley College at Campbell Community Center,-121.95158,37.28936
8794617610,2303.0,cafe,Winchester Coffee House,-121.95142,37.30539
2570859284,2303.0,cafe,Just Breakfast,-121.84896,37.29073
3624624017,2501.0,supermarket,Tân Lập Supermarket,-121.84743,37.3092
3678527432,2303.0,cafe,Meow!,-121.84038,37.2996
3678527444,2303.0,cafe,Bo Gia,-121.83864,37.29744
3679715100,2303.0,cafe,Heo May Cafe,-121.84764,37.30843
3679715105,2303.0,cafe,Dolce Espresso,-121.84802,37.30907
3679715120,2303.0,cafe,Passion-T Snacks & Desserts,-121.84971,37.31073
4350668476,2402.0,motel,Executive Inn San Jose,-121.83799,37.28127
4350668477,2402.0,motel,Clarion Inn Silicon Valley,-121.84268,37.28586
4350668480,2402.0,motel,Rodeway Inn,-121.86262,37.30547
7235884504,2303.0,cafe,Dolce Espresso III,-121.84918,37.31106
7387271940,2012.0,community_centre,Seven Trees Community Center,-121.8331,37.28501
7841092579,2303.0,cafe,Xinh Xinh Cafe,-121.8381,37.31497
8191101149,2014.0,arts_centre,Starting Arts,-121.85177,37.3082
8348281206,2082.0,school,Opportunity Youth Academy Snell,-121.84663,37.28081
8348281207,2083.0,kindergarten,Head Start Snell,-121.84693,37.28099
8355533283,2303.0,cafe,Urban Tea Cafe,-121.83361,37.3161
8363056266,2303.0,cafe,Tapioca Express,-121.8646,37.30295
8363056280,2303.0,cafe,Starbucks,-121.86425,37.30205
8424319845,2083.0,kindergarten,Head Start Stonegate,-121.83833,37.30942
8555364664,2303.0,cafe,Starbucks,-121.84795,37.28975
8867631958,2303.0,cafe,Chè Hiền Khánh,-121.8405,37.29981
8867631959,2303.0,cafe,Cafe Việt Nam,-121.83947,37.29873
577406730,2303.0,cafe,Starbucks,-121.88841,37.33739
3555373048,2303.0,cafe,City Bagels,-121.89103,37.33572
3634565757,2081.0,university,University of San Francisco San José Campus,-121.89066,37.33228
4765780810,2303.0,cafe,Thirst Tea,-121.88772,37.33321
4765780813,2303.0,cafe,Origins Juicery,-121.88846,37.33363
4789168521,2303.0,cafe,Crema Coffee Roasting Company,-121.88935,37.33371
4797429122,2303.0,cafe,Starbucks,-121.88736,37.33343
5681157283,2303.0,cafe,Café Too,-121.89017,37.33344
6094050079,2303.0,cafe,CommonGrounds,-121.88888,37.33609
2654920989,2303.0,cafe,Voyager Craft Coffee,-121.89428,37.33674
3537287697,2303.0,cafe,Starbucks,-121.89285,37.33534
5675220171,2082.0,school,Cinta Aveda Institute San Jose,-121.89418,37.33727
5681157284,2082.0,school,Paul Mitchell The School,-121.89201,37.3322
8730002084,2303.0,cafe,DR.INK,-121.89543,37.33631
506819349,2303.0,cafe,Starbucks,-121.91321,37.29286
4709221189,2501.0,supermarket,dd's Discounts,-121.9229,37.30503
5348535014,2303.0,cafe,Starbucks,-121.91412,37.30409
8263296203,2082.0,school,Grace Christian School,-121.92285,37.27954
1388187054,2082.0,school,Art School of San Francisco Bay,-122.09329,37.41413
1613630880,2303.0,cafe,Peet's Coffee,-122.11049,37.41927
2398606788,2501.0,supermarket,Piazza's Fine Foods,-122.10988,37.41875
2398606827,2082.0,school,Sequoia Academy,-122.10151,37.42022
358858060,2082.0,school,Silicon Valley University,-121.89026,37.39797
2235254641,2501.0,supermarket,99 Ranch Market,-121.8844,37.38633
3075986785,2303.0,cafe,Bambu Coffee & Snacks,-121.88479,37.38647
4766343040,2303.0,cafe,Starbucks,-121.89445,37.38327
5078370921,2303.0,cafe,Sharetea,-121.88285,37.38751
5659970674,2303.0,cafe,The Grind,-121.89029,37.39663
5773786205,2303.0,cafe,Gong Cha,-121.88768,37.3873
5780848800,2501.0,supermarket,H Mart,-121.89452,37.38383
6195959677,2012.0,community_centre,Orchard Bruins Event Center,-121.90122,37.38955
7307534764,2303.0,cafe,Vitality Bowls,-121.89605,37.3821
7307534779,2303.0,cafe,Peet's Coffee,-121.89586,37.38183
7307703480,2501.0,supermarket,Sprouts Farmers Market,-121.89807,37.38124
8654541329,2082.0,school,South Bay School of Nursing,-121.89402,37.38046
8715367042,2501.0,supermarket,Safeway,-121.8816,37.37045
491864092,2303.0,cafe,Starbucks,-121.92369,37.39813
560525287,2303.0,cafe,It's A Grind,-121.91597,37.36512
563318175,2303.0,cafe,Cafe Sun,-121.91295,37.36836
563335614,2303.0,cafe,Starbucks,-121.91721,37.37091
760160520,2303.0,cafe,Beryl's Place,-121.9283,37.395
2011578329,2303.0,cafe,Donut Den,-121.94188,37.36609
2157545925,2303.0,cafe,Starbucks,-121.92795,37.38536
2912323903,2303.0,cafe,Bagel Street Cafe,-121.92041,37.36906
4407990424,2303.0,cafe,Peet's Coffee,-121.92404,37.36449
4407990433,2303.0,cafe,Starbucks,-121.9291,37.36909
4407990438,2303.0,cafe,First-Class,-121.92971,37.36939
4407990445,2303.0,cafe,Peet's Coffee,-121.92962,37.36931
4853674928,2303.0,cafe,Starbucks,-121.92583,37.36597
4853689257,2303.0,cafe,Peet's Coffee,-121.92496,37.36515
4971355325,2303.0,cafe,Starbucks,-121.93152,37.37082
5671323711,2303.0,cafe,Camille's Sidewalk Cafe,-121.91589,37.36551
8559314968,2082.0,school,First Support CPR,-121.92088,37.37796
8657965734,2303.0,cafe,San Jose Gateway Cafe,-121.92407,37.37078
8657965739,2082.0,school,Motivaim,-121.92433,37.3708
8695206345,2303.0,cafe,Olives,-121.92788,37.38487
3643577900,2501.0,supermarket,Đại Thành Supermarket,-121.88452,37.33032
4093398681,2303.0,cafe,Voltaire Coffee House,-121.88687,37.32992
4093403691,2082.0,school,Lincoln Law School,-121.88492,37.3309
4392901231,2303.0,cafe,Nirvana Soul,-121.88706,37.33115
4974548840,2303.0,cafe,Peet's Coffee,-121.89037,37.32871
5681157285,2303.0,cafe,Corner Market Kitchen,-121.88814,37.33021
5681157295,2303.0,cafe,The Tech Cafe,-121.88991,37.33142
6499035246,2303.0,cafe,Academic Coffee,-121.88409,37.32912
7120584720,2303.0,cafe,iJAVA Cafe,-121.89474,37.32604
358766324,2082.0,school,Redwood Middle School,-122.01505,37.26539
477042434,2303.0,cafe,Big Basin Cafe,-122.03355,37.25795
2081698030,2303.0,cafe,Starbucks,-122.03225,37.2587
2637692727,2303.0,cafe,Yolatea,-122.03358,37.25753
6448767099,2303.0,cafe,Sue's Gallery Cafe,-122.03754,37.25578
2181512494,2303.0,cafe,"Cisco Systems Cafeteria, Building J",-121.95365,37.41204
4173741395,2303.0,cafe,Mikayla's Cafe,-121.96335,37.40817
4173741397,2303.0,cafe,,-121.96348,37.40812
5368495041,2303.0,cafe,Starbucks,-121.95569,37.41807
5732773895,2303.0,cafe,Coffee Bean & Tea Leaf,-121.955,37.41693
7012353351,2012.0,community_centre,Shreemaya Krishnadham Cultural & Community Center,-121.9562,37.42412
8566488451,2082.0,school,R.I.S.E. Academy,-121.95821,37.42118
1326889190,2303.0,cafe,Bobbi's Coffee Shop,-122.03258,37.29929
2099017534,2303.0,cafe,Happy Donuts,-122.03187,37.30794
3429668878,2303.0,cafe,85°C,-122.03256,37.30404
4018885275,2082.0,school,Daca swim school,-122.03161,37.30688
4331618319,2303.0,cafe,Go Fish Poke Bar,-122.03292,37.30403
4745733743,2303.0,cafe,Peet's Coffee,-122.03177,37.29266
7725286485,2014.0,arts_centre,,-122.03273,37.30909
7757334638,2082.0,school,WhizKidz Computer Center,-122.03143,37.30795
7757334644,2303.0,cafe,,-122.03169,37.30577
7757334646,2501.0,supermarket,India Cash & Carry,-122.03167,37.30498
7757334669,2303.0,cafe,Starbucks,-122.03254,37.3027
8568728016,2014.0,arts_centre,ArtHub,-122.0328,37.29061
266630158,2501.0,supermarket,India Cash & Carry,-122.00569,37.3514
266630161,2501.0,supermarket,Kumud Groceries,-122.00418,37.35299
358772608,2082.0,school,Marian A Peterson Middle School,-122.00857,37.34911
2658424326,2303.0,cafe,cocohodo,-122.00233,37.35167
3700417832,2501.0,supermarket,Lucky 7,-121.82798,37.32303
3700418046,2501.0,supermarket,Lion Supermarket,-121.82383,37.32115
3711317169,2501.0,supermarket,Sprouts Farmers Market,-121.81068,37.30941
3711324855,2501.0,supermarket,Maxim Market,-121.81115,37.30997
3711324869,2303.0,cafe,Happy Lemon Premier,-121.81293,37.30899
4485175930,2303.0,cafe,Trà,-121.81215,37.30665
6965787511,2501.0,supermarket,Chavez Supermarket,-121.80979,37.31287
7693476692,2303.0,cafe,Teasociety,-121.81055,37.30614
8362804606,2303.0,cafe,Krazy Churros,-121.80999,37.31045
8442146835,2303.0,cafe,Jazen Tea,-121.82425,37.32313
8505350807,2501.0,supermarket,FoodMaxx,-121.8205,37.32388
8525703678,2303.0,cafe,Cool Tea Bar,-121.82364,37.31947
8533356526,2303.0,cafe,Shincha Tea,-121.82695,37.31912
8675336494,2303.0,cafe,Dolce Espresso,-121.81892,37.32637
8759777169,2303.0,cafe,i-Tea San Jose,-121.80978,37.31236
8899354495,2303.0,cafe,Starbucks,-121.80974,37.31089
281870028,2303.0,cafe,CoHo,-122.17083,37.42408
287462718,2303.0,cafe,Bytes Cafe,-122.17355,37.42936
2399856270,2303.0,cafe,Cafe Coupa Stanford Golf Course,-122.18412,37.42126
3355037887,2303.0,cafe,Coupa Cafe,-122.17559,37.42833
4742742429,2303.0,cafe,Stanford Bookstore Café,-122.1688,37.42502
5555953390,2303.0,cafe,Starbucks,-122.17083,37.42435
5753077921,2303.0,cafe,Coupa Cafe,-122.16215,37.42802
6920713360,2012.0,community_centre,Asian American Activities Center,-122.16998,37.42477
6920713361,2012.0,community_centre,El Centro Chicano y Latino,-122.1697,37.4253
6920764824,2084.0,college,Stanford Institute for Economic Policy Research,-122.16551,37.42918
7115901022,2303.0,cafe,Coupa Cafe - Huang Engineering Center,-122.17428,37.42822
7165706935,2012.0,community_centre,Women’s Community Center,-122.17171,37.42505
7165706936,2012.0,community_centre,"Lesbian, Gay, Bisexual, Transgender Community Resources Center",-122.17168,37.42512
7165706938,2012.0,community_centre,QSpot,-122.17169,37.42509
1048792178,2303.0,cafe,Starbucks,-121.86183,37.21982
1048792302,2303.0,cafe,Posh Bagels,-121.86192,37.21985
2091189234,2303.0,cafe,Maple Leaf Donuts,-121.86229,37.22025
8259265222,2083.0,kindergarten,,-121.86712,37.22327
1053626257,2303.0,cafe,Starbucks,-121.88853,37.24582
2028393608,2303.0,cafe,Manley's Donuts,-121.90384,37.23286
2068009989,2501.0,supermarket,Lucky,-121.88585,37.22889
4004340905,2303.0,cafe,Blvd Coffee,-121.88461,37.23033
4060922217,2303.0,cafe,Starbucks,-121.91463,37.23601
5821093918,2303.0,cafe,Cafetorium,-121.92152,37.24207
6286734901,2303.0,cafe,Starbucks,-121.9317,37.24189
8263062491,2082.0,school,Saint Timothy’s Lutheran School,-121.90655,37.24637
8459372449,2501.0,supermarket,Mi Rancho Carniceria,-121.88934,37.24666
358773208,2082.0,school,Rancho Milpitas Middle School,-121.87077,37.42391
358773223,2082.0,school,Robert Randall Elementary School,-121.88162,37.42966
358776798,2082.0,school,Summit School,-121.8694,37.42299
358838402,2082.0,school,John Sinnott Elementary School,-121.86996,37.42299
5018469890,2501.0,supermarket,Save Mart,-121.87489,37.41844
6682154727,2501.0,supermarket,Ocean Supermarket,-121.88318,37.43537
6700931882,2303.0,cafe,Starbucks,-121.88579,37.43557
6701008117,2110.0,hospital,Pacific Medical Center,-121.88681,37.43594
7732175990,2303.0,cafe,,-121.88636,37.40667
8253284728,2501.0,supermarket,Seafood City,-121.87689,37.41685
8262966502,2501.0,supermarket,Fiesta Market,-121.88583,37.43315
8332523274,2303.0,cafe,,-121.8759,37.41613
8332523277,2303.0,cafe,Kopitiam Cafe,-121.87709,37.41654
8332523283,2303.0,cafe,Aroma Coffee & Snacks,-121.87648,37.41665
8356250193,2303.0,cafe,Omega Coffee Shop,-121.88333,37.43437
8405938002,2303.0,cafe,HS Sandwiches and Juice,-121.87559,37.41352
8509343910,2083.0,kindergarten,Milpitas Christian Preschool,-121.87528,37.41992
8523959407,2083.0,kindergarten,Safari Kid Milpitas,-121.87913,37.41613
8585298463,2082.0,school,Monarch Christian Academy,-121.87008,37.43773
8735543507,2303.0,cafe,Quickly,-121.87371,37.41735
343135403,2303.0,cafe,Red Rock Coffee,-122.07886,37.39364
593968804,2303.0,cafe,Starbucks,-122.0831,37.3875
1306273777,2303.0,cafe,Olympus Caffè & Bakery,-122.07833,37.3945
1311379465,2303.0,cafe,Teaspoon,-122.07951,37.39343
1576045650,2303.0,cafe,The Liquid Menu,-122.08291,37.38789
1722146746,2303.0,cafe,Hong Kong Bakery and Cafe,-122.0793,37.39375
2157948579,2303.0,cafe,Verde Tea Cafe,-122.07949,37.39415
2157993883,2303.0,cafe,Bean Scene,-122.08169,37.39006
2157993889,2303.0,cafe,Peet's Coffee,-122.08109,37.39091
2217251227,2303.0,cafe,Tea Era,-122.07927,37.39303
2217251308,2303.0,cafe,Tapioca Express,-122.07837,37.39371
4837889880,2303.0,cafe,Dana Street Roasting Company,-122.07903,37.39241
4880847609,2303.0,cafe,Jazen Tea,-122.07943,37.39366
7979223615,2303.0,cafe,1 Oz Coffee,-122.0829,37.38797
8530178857,2501.0,supermarket,Rose International Market,-122.08452,37.38571
8618960370,2082.0,school,Khan Lab School,-122.084,37.39652
2302042015,2303.0,cafe,La Lune Sucree,-121.88509,37.33363
3151883654,2303.0,cafe,Philz Coffee,-121.88499,37.33363
3630274647,2303.0,cafe,Whispers,-121.88655,37.33392
4183980016,2303.0,cafe,Gong Cha,-121.88469,37.33365
4833597321,2303.0,cafe,Amor Cafe & Tea,-121.88652,37.3354
4895055266,2303.0,cafe,On Fourth Café,-121.8855,37.33551
5681157286,2303.0,cafe,Cinnaholic San Jose,-121.88493,37.33277
5681157314,2303.0,cafe,Recovery Café San José,-121.88506,37.33699
3579138983,2501.0,supermarket,Lion Market,-121.82404,37.30055
6868507878,2303.0,cafe,Starbucks,-121.8219,37.30022
8052658030,2501.0,supermarket,Senter Foods,-121.82484,37.28323
923740504,2303.0,cafe,Starbucks,-121.94177,37.40642
5008481801,2303.0,cafe,Starbucks,-121.94003,37.40206
5121029938,2303.0,cafe,Starbucks,-121.93314,37.40304
7093940270,2082.0,school,,-121.93356,37.4081
8185858628,2303.0,cafe,Caffe Bene,-121.9376,37.41278
8348357301,2083.0,kindergarten,LifeConnections Children’s Learning Center,-121.94553,37.40693
8566442104,2081.0,university,Cogswell University of Silicon Valley,-121.9409,37.41405
326725120,2303.0,cafe,Starbucks,-121.63914,37.13035
597930793,2303.0,cafe,GVA Café,-121.65302,37.12901
721776350,2501.0,supermarket,Morgan Hill Foods,-121.65971,37.12887
4077146721,2303.0,cafe,Lombardo's Donuts,-121.65884,37.12858
7052138243,2303.0,cafe,Main Street Bagels,-121.65239,37.12822
7062078742,2303.0,cafe,Coffee Guys,-121.65154,37.12837
459380662,2303.0,cafe,Starbucks,-121.87301,37.3732
5125211237,2501.0,supermarket,Lucky,-121.87359,37.39674
5285058439,2303.0,cafe,7Leaves Cafe,-121.87249,37.37504
7076603487,2303.0,cafe,Pekoe,-121.87187,37.37344
7111430533,2501.0,supermarket,Indo-Pak Halal Market,-121.87343,37.37531
8328569265,2083.0,kindergarten,Children’s Garden Preschool,-121.87579,37.38175
1808372880,2303.0,cafe,Starbucks,-121.64361,37.1125
3524713022,2303.0,cafe,Beach Hut Deli,-121.63783,37.11383
3901681261,2082.0,school,Kumon,-121.64645,37.11722
4170124355,2303.0,cafe,Daily Bagel Cafe,-121.63881,37.11323
7143079429,2083.0,kindergarten,Kiddie Academy,-121.63865,37.11078
8567698139,2084.0,college,Diversity Career College,-121.64428,37.11835
313261447,2005.0,post_office,,-122.0864,37.35438
345438498,2002.0,fire_station,Loyola Fire Station,-122.09334,37.3576
923288074,2001.0,police,Police Station,-122.1274,37.36188
2619982748,2005.0,post_office,The UPS Store,-122.0981,37.36163
5587462376,2005.0,post_office,United States Post Office,-122.05135,37.35438
324518353,2008.0,town_hall,Los Altos Hills Town Hall,-122.13872,37.38371
1723464800,2007.0,library,Christian Science Reading Room,-122.1452,37.42561
8281625768,2007.0,library,NASA Harold P. Klein Life Sciences Library,-122.05807,37.41445
8281625769,2007.0,library,NASA Technical Library,-122.06225,37.4136
4608063472,2007.0,library,Columbia Neighborhood center library,-122.01875,37.39494
300946538,2008.0,town_hall,Gilroy City Hall,-121.57253,37.00435
332494039,2001.0,police,Gilroy Police Station,-121.57349,37.00408
368170127,2007.0,library,Gavilan College Library,-121.56915,36.97387
8712687243,2007.0,library,Cesar E. Chavez Library,-121.57567,36.99677
3063907836,2005.0,post_office,The UPS Store,-122.04243,37.3387
1077818343,2005.0,post_office,Redwood Estates,-121.98653,37.15842
1642124879,2005.0,post_office,The UPS Store,-122.16028,37.43855
1781829281,2007.0,library,Lane Medical Library,-122.1755,37.43273
4732910085,2007.0,library,Robin Li and Melissa Ma Science Library,-122.17142,37.43069
812849107,2007.0,library,,-121.60203,37.03733
993180206,2005.0,post_office,Fed Ex Center,-121.58007,37.01326
8484206910,2005.0,post_office,The UPS Store,-121.8419,37.33917
7176677261,2005.0,post_office,United States Post Office,-121.91431,37.31856
3458890526,2005.0,post_office,The UPS Store,-121.91286,37.33266
3643659852,2001.0,police,Transit Police Bureau Substation,-121.90256,37.32913
8770636829,2009.0,courthouse,Juvenile Justice Courthouse,-121.90786,37.34991
314151192,2005.0,post_office,,-122.08823,37.37172
358838159,2005.0,post_office,Los Altos Post Office,-122.12015,37.38048
2403126776,2005.0,post_office,United States Post Office,-122.07601,37.37839
2619982673,2005.0,post_office,Mail All Center,-122.08782,37.373
2619982745,2005.0,post_office,The UPS Store,-122.11507,37.37905
2641042493,2005.0,post_office,Los Altos Mail Office,-122.11938,37.38012
2642087074,2005.0,post_office,,-122.11591,37.37856
5975640248,2007.0,library,Covington School Library,-122.1068,37.37248
4367160189,2005.0,post_office,The UPS Store,-121.79773,37.25386
7100399100,2005.0,post_office,Mail Stop,-121.83128,37.23815
8567999339,2005.0,post_office,HR Express,-121.83372,37.27941
631343897,2001.0,police,Santa Clara Police,-121.94768,37.39539
6859149487,2005.0,post_office,PostalAnnex,-121.94662,37.3948
3987066984,2002.0,fire_station,Pacheco Fire Station 31,-121.34696,37.01346
368170145,2007.0,library,West Valley Branch Library,-121.97934,37.30237
933757012,2001.0,police,Mission College Police,-121.98139,37.39235
988279570,2005.0,post_office,All Service Centre,-121.99515,37.38336
2297714492,2005.0,post_office,FedEx Office,-121.98445,37.38874
2607395542,2005.0,post_office,FedEx Office,-121.99525,37.38298
3655078965,2005.0,post_office,The UPS Store,-121.97477,37.39034
8723178610,2007.0,library,Saint John Paul II Library,-121.97651,37.38888
1700633023,2001.0,police,Milpitas Police,-121.91018,37.44931
368170150,2007.0,library,Pacific Graduate School of Psychological Research Library,-122.10635,37.42966
8197826661,2008.0,town_hall,Sunnyvale City Hall,-122.03787,37.37258
3642759857,2001.0,police,University Police Department,-121.87992,37.33313
358839422,2005.0,post_office,New Almaden Post Office,-121.82273,37.17578
368168639,2002.0,fire_station,San Jose Fire Station 28,-121.82472,37.19952
5762636708,2002.0,fire_station,Cal Fire Stevens Creek Fire Station 23,-122.0791,37.28719
368168551,2002.0,fire_station,West Valley Fire Station,-122.01947,37.28266
368171156,2099.0,public_building,Sanchez-South County Government Center,-121.60257,37.07393
1280580278,2007.0,library,,-121.60124,37.07842
5754996147,2007.0,library,,-121.60495,37.13801
368170147,2007.0,library,Saint Thomas Episcopal Church Library,-122.04328,37.3776
3513424193,2002.0,fire_station,Quito Fire Station,-122.00229,37.24122
358857281,2002.0,fire_station,McCormack Training Center,-121.95843,37.27361
368168550,2002.0,fire_station,Sunnyoaks Fire Station,-121.95845,37.27246
2494420134,2001.0,police,Los Gatos Police Department Operations Center,-121.96181,37.23739
2570305851,2005.0,post_office,FedEx Office,-121.96021,37.24291
3272065316,2005.0,post_office,PostalAnnex,-121.96048,37.24006
3513457593,2002.0,fire_station,Winchester Fire Station,-121.96771,37.25231
3704012660,2005.0,post_office,The UPS Store,-121.95798,37.24404
368170458,2007.0,library,First Congregational Church Library,-122.13361,37.44464
4474939856,2005.0,post_office,Postal Plus,-121.90728,37.25243
368168537,2002.0,fire_station,San Jose Fire Station 9,-121.9163,37.26343
4876323121,2005.0,post_office,The UPS Store,-121.93397,37.26282
5821249648,2007.0,library,Ida Price M.S. Library,-121.92574,37.27327
3911828059,2005.0,post_office,PostalAnnex,-121.77546,37.23073
8288098806,2005.0,post_office,Mailbox & More,-121.77509,37.22764
7215715252,2005.0,post_office,Centro Express,-121.8908,37.35974
1249142264,2002.0,fire_station,Cal Fire Smith Creek Fire Station 12,-121.66915,37.32257
368170459,2007.0,library,Center for Continuing Study of California Economy Library,-122.16052,37.44938
2512780031,2001.0,police,Palo Alto Police Department,-122.15955,37.44409
368167879,2002.0,fire_station,Los Altos Fire Station,-122.11367,37.38471
2638611675,2005.0,post_office,Village Mail Center,-122.11519,37.40038
8558664859,2005.0,post_office,The UPS Store,-121.85798,37.38746
8562616201,2007.0,library,Harrington Learning Commons,-121.93804,37.3484
8562616203,2007.0,library,Orradre Library,-121.93783,37.34824
8604433234,2005.0,post_office,Mailing Service Center,-121.93851,37.33948
8604433236,2005.0,post_office,Ad West Mail Center,-121.93842,37.33931
358839370,2005.0,post_office,Los Gatos Main Post Office,-121.98432,37.2213
368171802,2008.0,town_hall,Los Gatos City Hall,-121.97879,37.22056
472302986,2001.0,police,,-121.97882,37.22049
647699753,2002.0,fire_station,Los Gatos Fire Station,-121.97993,37.22685
1257135026,2007.0,library,California Province of the Society of Jesus Jesuit Center Library,-121.98216,37.2137
4908231765,2007.0,library,Reading Room,-121.97643,37.22062
6615573414,2005.0,post_office,The UPS Store,-121.98022,37.23161
368166733,2099.0,public_building,Santa Clara Unified School District Office,-121.99524,37.3555
580360959,2002.0,fire_station,,-121.99245,37.34518
2388972240,2005.0,post_office,United States Post Office,-121.99439,37.34595
7256260593,2005.0,post_office,The UPS Store,-121.9761,37.33818
358839182,2005.0,post_office,Blossom Hill Station San Jose Post Office,-121.84639,37.24888
8648300406,2005.0,post_office,PostalAnnex,-121.87924,37.26258
358838664,2005.0,post_office,Station B San Jose Post Office,-121.90301,37.31105
3778987367,2005.0,post_office,Garden Station,-121.90086,37.30706
8895930296,2007.0,library,The Gene and Mickey Long Library,-121.89621,37.29082
4641748422,2007.0,library,Inez C. Jackson Historical Library,-121.88846,37.34345
368170148,2007.0,library,Milpitas Community Library,-121.89842,37.43343
1700633024,2007.0,library,Milpitas Public Library,-121.90704,37.43243
3631944449,2005.0,post_office,The Postal Stop,-121.90906,37.4279
6681775714,2005.0,post_office,The UPS Store,-121.89891,37.43524
2159765926,2002.0,fire_station,,-121.77933,37.05669
8813107045,2005.0,post_office,利达快递,-122.0327,37.31419
8856487722,2005.0,post_office,Stevens Creek Office Center Mail Drop,-122.03859,37.32374
2309426541,2001.0,police,,-122.04522,37.32091
8447172610,2005.0,post_office,PostalAnnex,-121.78142,37.28826
8573333116,2005.0,post_office,PostalAnnex,-121.79421,37.31435
8759077372,2005.0,post_office,E-Z Mail,-121.79169,37.31277
358838660,2005.0,post_office,Santa Clara Post Office,-121.94718,37.34855
6532925180,2005.0,post_office,PostalAnnex,-121.96116,37.35024
4642809825,2005.0,post_office,Kangaroo Pack & Ship,-121.85746,37.33157
4885818785,2001.0,police,Opsec Security Patrol,-121.85696,37.33383
8207376561,2005.0,post_office,VietAir Express,-121.85242,37.33299
8356930851,2005.0,post_office,Việt Cargo,-121.85752,37.33242
368168552,2002.0,fire_station,Campbell Fire Station,-121.93584,37.28546
6307708478,2005.0,post_office,The UPS Store,-121.93203,37.29078
7387271605,2007.0,library,Bascom Branch Library,-121.93116,37.30759
368170137,2007.0,library,Islamic Library and Resource Center,-121.94801,37.29189
3679715123,2005.0,post_office,,-121.85106,37.31167
7387271939,2007.0,library,Seven Trees Branch Library,-121.83326,37.28494
7717587137,2005.0,post_office,,-121.84751,37.3091
7841092575,2005.0,post_office,Bảo Tín Cargo,-121.83835,37.31482
8356284459,2005.0,post_office,ABC Cargo Express,-121.84327,37.30243
3630274649,2005.0,post_office,The UPS Store,-121.88712,37.33572
4881063480,2001.0,police,170 Suite,-121.88976,37.33608
7094840053,2005.0,post_office,The UPS Store,-121.91246,37.29284
1700604299,2005.0,post_office,FedEx Office Print and Ship Center,-121.89383,37.38358
6177519993,2005.0,post_office,FedEx,-121.89526,37.38388
6536460667,2005.0,post_office,The UPS Store,-121.89738,37.3843
4901268357,2005.0,post_office,The UPS Store,-121.88815,37.32992
358838486,2005.0,post_office,Saratoga Post Office,-122.01519,37.26629
368172495,2008.0,town_hall,Saratoga City Hall,-122.01472,37.2675
464804696,2002.0,fire_station,Saratoga Fire Station,-122.03148,37.25918
2637692717,2005.0,post_office,The UPS Store,-122.03299,37.25849
3655078967,2005.0,post_office,The UPS Store,-121.97567,37.40443
4909658725,2001.0,police,Community Policing Center,-121.97662,37.42637
7757334640,2005.0,post_office,The UPS Store,-122.03147,37.30782
2663431877,2005.0,post_office,The UPS Store,-122.006,37.35141
8447057826,2005.0,post_office,Tây Nam Cargo,-121.82709,37.31906
8784037258,2005.0,post_office,,-121.82362,37.32199
3445812317,2007.0,library,Branner Earth Sciences Library,-122.17264,37.42644
4768549821,2007.0,library,David Rumsey Map Center,-122.16778,37.42686
4846515988,2007.0,library,Robert Crown Law Library,-122.16764,37.42419
4892917223,2007.0,library,Stanford Geospatial Center,-122.17252,37.42642
5206903613,2007.0,library,Tanner Philosophy Library,-122.17123,37.42792
5555953384,2007.0,library,Mendenhall Library,-122.16932,37.42835
7439173023,2007.0,library,Stanford Map Library,-122.17276,37.42646
358839117,2005.0,post_office,Almaden Valley Station San Jose Post Office,-121.8625,37.21881
368170115,2007.0,library,Almaden Branch Library,-121.86975,37.22136
2070192197,2005.0,post_office,The UPS Store,-121.88469,37.22967
5821093916,2007.0,library,Leigh Library,-121.92152,37.2424
7732168783,2005.0,post_office,PostNet,-121.88654,37.40676
8332523259,2005.0,post_office,Atlas,-121.87731,37.41676
8356250207,2005.0,post_office,Dollar Plus,-121.8827,37.4343
8756218105,2005.0,post_office,Post N Parcel,-121.87246,37.41752
1783200420,2005.0,post_office,The UPS Store,-122.08293,37.3878
2157969014,2005.0,post_office,Mountain View Hope Street Post Office,-122.07778,37.3931
2217336066,2008.0,town_hall,Mountain View City Hall,-122.08202,37.38971
4884928806,2001.0,police,Mountain View Police Department,-122.08165,37.39561
3630274641,2005.0,post_office,Colonnade Station Post Office,-121.88544,37.33352
8424037554,2005.0,post_office,The UPS Store,-121.82418,37.29987
8185858620,2005.0,post_office,The UPS Store,-121.93854,37.41249
4170062877,2005.0,post_office,The UPS Store,-121.64267,37.11202
4170124353,2005.0,post_office,PostalAnnex,-121.64036,37.11337
