osm_id,code,fclass,name,lon,lat
1256474422,2303,cafe,Café Venetia,-122.16522,37.44347
1710414058,2303,cafe,Peet's Coffee,-122.15969,37.44197
2561939893,2303,cafe,Max's Opera Cafe,-122.17289,37.4428
3093753200,2303,cafe,Philz Coffee,-122.16154,37.44207
3243900269,2303,cafe,Starbucks,-122.17177,37.44364
4936211822,2303,cafe,NM Cafe,-122.17262,37.44126
6559717047,2303,cafe,Joe & The Juice,-122.17069,37.44287
1255955100,2303,cafe,Alumni Café,-122.16468,37.43084
1708076036,2303,cafe,Peet's Coffee,-122.17417,37.43098
1708076048,2303,cafe,Med Cafe,-122.17558,37.43196
6593596200,2303,cafe,Cantor Cafe,-122.17124,37.43266
582458281,2082,school,Western Montessori,-122.06209,37.38513
876494816,2402,motel,County Inn,-122.06646,37.40544
1071651008,2303,cafe,Clocktower Coffee,-122.06166,37.39695
1572297515,2501,supermarket,Madras Groceries,-122.05547,37.37441
3195064061,2303,cafe,Halftime Cafe,-122.05708,37.39939
3195064066,2303,cafe,Hangout Cafe,-122.05546,37.39992
3195064078,2303,cafe,Portal Cafe,-122.05853,37.39885
3836342234,2083,kindergarten,Little Prodigy Preschool,-122.06227,37.37707
4452639096,2303,cafe,Peet's Coffee,-122.05085,37.40282
6682246885,2083,kindergarten,Sunny Day Care,-122.05518,37.36895
4392976740,2303,cafe,Big Bites Vietnamese Eatery,-122.0796,37.40246
4392976741,2303,cafe,California Mochi Mini,-122.0798,37.40252
4395482134,2303,cafe,Regal Bagel Cafe,-122.07948,37.40265
358763150,2082,school,Saint Cyprian Elementary School,-122.05066,37.38086
1313317149,2303,cafe,Starbucks,-122.04647,37.37861
1323011584,2082,school,Tiger martial arts academy,-122.05279,37.37375
1327997361,2303,cafe,Starbucks,-122.05134,37.35264
1459467598,2501,supermarket,Smart and Final Extra!,-122.05123,37.35341
1572294518,2501,supermarket,Felipe's Market,-122.05237,37.37315
1843364371,2501,supermarket,Zanotto's Market Sunnyvale,-122.04956,37.35018
1843364384,2501,supermarket,European Gourmet Delicatessen,-122.04948,37.35096
1843364386,2501,supermarket,New India Bazaar,-122.04947,37.3508
5871263418,2501,supermarket,Apna Bazar,-122.0522,37.37359
276836154,2303,cafe,Starbucks,-122.06676,37.33711
276836172,2303,cafe,Peet's Coffee and Tea,-122.06616,37.33727
314082182,2303,cafe,Tom's Depot,-122.08737,37.35297
314151916,2501,supermarket,Safeway Community Market,-122.09699,37.36068
358838460,2082,school,Los Altos Christian High School,-122.09885,37.3605
1699090143,2083,kindergarten,,-122.05431,37.35594
1818369713,2303,cafe,Los Altos Bakery and Cafe,-122.09647,37.36055
2204100722,2501,supermarket,Trader Joe's,-122.06751,37.33716
2619982660,2082,school,Gymboree,-122.09772,37.36129
2619982674,2303,cafe,Main Street Bagels,-122.0977,37.36118
2619982709,2303,cafe,Starbucks,-122.09799,37.36139
2866748997,2501,supermarket,Lucky,-122.07153,37.34207
358838243,2082,school,The Kings Academy,-122.01357,37.38744
358858301,2082,school,Cogswell Polytechnical College,-122.02395,37.40813
358858667,2082,school,International Technological University,-122.0265,37.39639
487082152,2303,cafe,Bagel Street Cafe,-122.02971,37.38903
487082163,2501,supermarket,Lucky,-122.0294,37.38846
487082165,2303,cafe,Starbucks,-122.03035,37.38835
487771722,2303,cafe,iBagels Bakery and Cafe,-122.0147,37.41032
490455856,2303,cafe,Shaw's Sandwiches,-122.02994,37.38826
615947556,2303,cafe,Le Boulanger Sunnyvale/Mathilda,-122.03212,37.38524
2527515400,2081,university,Nine Star University of Health Sciences,-122.0077,37.38346
2527515416,2082,school,Christian Leadership institute,-122.00772,37.38352
2607498435,2501,supermarket,Western Pacific Filipino Grocery,-122.00461,37.38899
2973549269,2303,cafe,Specialty's Cafe & Bakery,-122.0096,37.40367
3163954391,2303,cafe,Joy Wok,-122.0291,37.38884
3977606746,2303,cafe,Von’s Express Halal,-122.00323,37.38915
4330348989,2501,supermarket,Guadalajara Market,-122.02328,37.3971
4331564473,2501,supermarket,Mi Ranchito Produce,-122.02378,37.38782
4350668488,2402,motel,Travel Inn,-122.02974,37.39125
4627420411,2501,supermarket,Grocery Outlet,-122.00972,37.40325
5737709898,2501,supermarket,Taj Mahal Fresh Market,-122.00347,37.38913
266630158,2501,supermarket,India Cash & Carry,-122.00569,37.3514
266630161,2501,supermarket,Kumud Groceries,-122.00418,37.35299
358772608,2082,school,Marian A Peterson Middle School,-122.00857,37.34911
2658424326,2303,cafe,cocohodo,-122.00233,37.35167
358779077,2082,school,Wilson Adult-Community Education Center,-121.95524,37.34633
487639344,2501,supermarket,New India Bazaar,-121.963,37.35289
599326230,2303,cafe,Starbucks,-121.96776,37.3518
611542090,2501,supermarket,Smart and Final,-121.9611,37.35303
3379039894,2501,supermarket,Sprouts Farmers Market,-121.96228,37.34998
3456741593,2303,cafe,Peet's Coffee,-121.96019,37.35208
5166486734,2303,cafe,Psycho Donuts,-121.95974,37.35184
309331540,2501,supermarket,Lucky,-121.99811,37.35397
358772929,2082,school,Pomeroy Elementary School,-121.9869,37.348
358774275,2082,school,Saint Lawrence Academy,-121.99405,37.35883
358838668,2082,school,Valley Continuation High School,-121.99524,37.35466
599098661,2303,cafe,,-121.99484,37.33844
599100867,2082,school,Kinder Care,-121.99344,37.33944
599326229,2303,cafe,Starbucks,-121.99732,37.35296
599326232,2303,cafe,Java Town,-121.97687,37.35195
1311402909,2082,school,Little Star Learning Center,-121.99403,37.33636
2195201549,2402,motel,Granada Inn - Silicon Valley,-121.97137,37.35265
2195207938,2402,motel,Mariani’s Inn,-121.97091,37.3517
2658424321,2501,supermarket,Hankook,-122.00134,37.35159
4562827119,2303,cafe,,-121.97772,37.33927
4854557508,2303,cafe,Specialty’s Café & Bakery,-121.99508,37.3374
5125066001,2082,school,,-121.98658,37.33428
5172034723,2303,cafe,Starbucks,-121.9749,37.3381
6110253200,2303,cafe,177 Courtyard Café,-121.99772,37.33626
6138652374,2110,hospital,114 Ambulatory Surgery,-121.99891,37.33664
6138652375,2110,hospital,112 Patient Financial Services,-121.999,37.33623
6138652376,2110,hospital,110 Volunteer Services,-121.9991,37.33623
6138652377,2110,hospital,125 Conference Room,-121.99951,37.33612
6138652395,2110,hospital,120 Nuclear Medicine,-121.99951,37.33646
6138652396,2110,hospital,122 MRI,-121.99964,37.33642
6138652397,2110,hospital,126 Intensive Care Unit Rooms 1260–1269,-121.99961,37.3359
6138652398,2110,hospital,128 Transitional Care Unit Rooms 1280–1289,-121.99961,37.33579
6138652399,2110,hospital,135 Telemetry/ Stroke Unit Rooms 1350–1372,-121.99955,37.33548
6138652400,2110,hospital,138 Pharmacy/Discharge,-121.99925,37.33562
6138652401,2110,hospital,100 Emergency,-121.99854,37.33543
6138652402,2110,hospital,104 Imaging/Radiology,-121.99868,37.33579
6138652403,2110,hospital,106 Gift Gallery,-121.99891,37.33589
6138652404,2110,hospital,B02 Lost and Found,-121.99857,37.33528
6138652422,2110,hospital,B06 Conference Room,-121.99942,37.33584
6138652423,2110,hospital,B08 Cafeteria,-121.99964,37.33574
6313249954,2303,cafe,Big Mug Coffee Roaster,-121.98099,37.35155
343135403,2303,cafe,Red Rock Coffee,-122.07886,37.39364
593968804,2303,cafe,Starbucks,-122.0831,37.3875
1306273777,2303,cafe,Olympus Caffè & Bakery,-122.07833,37.3945
1311379465,2303,cafe,Teaspoon,-122.07951,37.39343
1576045650,2303,cafe,The Liquid Menu,-122.08291,37.38789
1576214406,2303,cafe,Peet's Coffee,-122.08424,37.3856
1722146746,2303,cafe,Hong Kong Bakery and Cafe,-122.0793,37.39375
2157948579,2303,cafe,Verde Tea Cafe,-122.07949,37.39415
2157993883,2303,cafe,Bean Scene,-122.08169,37.39006
2157993889,2303,cafe,Peet's Coffee,-122.08109,37.39091
2217251227,2303,cafe,Tea Era,-122.07927,37.39303
2217251308,2303,cafe,Tapioca Express,-122.07837,37.39371
4837889880,2303,cafe,Dana Street Roasting Company,-122.07903,37.39241
4880847609,2303,cafe,Jazen Tea,-122.07943,37.39366
358768483,2082,school,Jollyman School,-122.03802,37.31133
1218545831,2303,cafe,Peet's Coffee,-122.03827,37.32321
1294040955,2303,cafe,,-122.03191,37.30793
1326889190,2303,cafe,Bobbi's Coffee Shop,-122.03258,37.29929
1974353562,2303,cafe,Starbucks Reserve,-122.03275,37.32198
1984736755,2110,hospital,PAMF,-122.03142,37.3017
2309429643,2303,cafe,Cafe Rococo,-122.04558,37.32085
2309429644,2303,cafe,Le Cafe,-122.04521,37.32073
2621484199,2303,cafe,Coffee Society,-122.04735,37.32323
2622899125,2303,cafe,Tapioca Express,-122.03412,37.32453
2814548826,2303,cafe,Bitter + Sweet,-122.03144,37.31823
3808428945,2501,supermarket,Marina Foods,-122.03376,37.32465
3814942152,2501,supermarket,99 Ranch Market,-122.03356,37.31709
3814942165,2501,supermarket,Sprouts Farmers Market,-122.03348,37.32194
4331618319,2303,cafe,Go Fish Poke Bar,-122.03292,37.30403
4370678952,2501,supermarket,rose market,-122.03341,37.31262
4745733743,2303,cafe,Peets Coffee,-122.03177,37.29266
5735458370,2303,cafe,Starbucks,-122.03254,37.30268
5742332062,2303,cafe,Starbucks,-122.05483,37.32313
346427267,2501,supermarket,Ranch 99,-122.07658,37.37766
357600882,2501,supermarket,Nijiya Market,-122.07145,37.37867
1570138528,2501,supermarket,Nob Hill Foods,-122.07635,37.37834
1579638308,2303,cafe,Peet's Coffee,-122.0763,37.37809
1729919565,2303,cafe,Starbucks,-122.08775,37.373
1729919570,2303,cafe,Tea Annie,-122.08768,37.3728
2403126770,2303,cafe,Ocha,-122.07671,37.37714
2600782818,2082,school,Early Music Minds,-122.07672,37.3768
2600782842,2303,cafe,Bowl of Heaven,-122.07457,37.37969
2600782845,2501,supermarket,Smart and Final,-122.07159,37.37877
2619982668,2082,school,Kumon,-122.08799,37.3717
4763481171,2303,cafe,Posh Bagel,-122.0749,37.3798
5049994223,2303,cafe,Starbucks,-122.07078,37.37884
266625630,2303,cafe,Starbucks,-122.03646,37.36768
343600298,2501,supermarket,Sprouts Farmers Market,-122.03024,37.36754
368173523,2012,community_centre,Sunnyvale Community Center,-122.02529,37.35811
976494423,2303,cafe,Starbucks,-122.01731,37.35654
2007289654,2303,cafe,Sunnyvale Gallery Cafe,-122.03457,37.36882
2050793995,2083,kindergarten,Gymboree Play & Music of Sunnyvale,-122.02123,37.35928
2125918594,2501,supermarket,Trader Joe's,-122.03588,37.36797
2203769868,2303,cafe,Peet's Coffee,-122.03324,37.3679
2225535975,2303,cafe,Bikaner Sweets Chaat Cafe,-122.04157,37.36915
2663431544,2012,community_centre,Athidhi Banquet Hall,-122.01597,37.36628
2663431570,2082,school,Boost Up Kids Academy,-122.01518,37.36546
2663431885,2501,supermarket,Wolfe India Bazar,-122.01693,37.36628
5125200381,2082,school,Kumon,-122.0274,37.36532
5620033650,2303,cafe,Happy Lemon,-122.0245,37.36195
5621056929,2014,arts_centre,NorCal Music & Arts Center,-122.01918,37.358
358838328,2082,school,University of California Santa Clara Extension Facility at Tech Mart,-121.97663,37.40614
428208392,2303,cafe,,-121.98342,37.38909
447936332,2084,college,Herguan University,-121.9968,37.38647
933941606,2303,cafe,Cafeteria,-121.98174,37.39197
988282027,2303,cafe,Mission City Cafe,-121.99482,37.3825
1246171252,2082,school,University of California Santa Clara Extension in Silicon Valley,-121.97079,37.38236
1998283898,2081,university,Medical Center – University of East-West Medicine,-121.99711,37.38647
2604149621,2501,supermarket,New Wing Yuan Market,-121.99694,37.39757
2607395530,2303,cafe,Bagel Place Cafe,-121.99522,37.38461
2686015539,2082,school,California Reformed University,-121.99099,37.38305
2686109543,2303,cafe,Nutri Plus Tea,-121.99496,37.38
2686109550,2303,cafe,iChaat Cafe,-121.99504,37.38
3640211825,2501,supermarket,Bharat Bazaar,-121.99727,37.36736
4570896289,2303,cafe,Pavillion,-121.98282,37.4046
4876893915,2303,cafe,Xiang Xiang Noodle,-121.99509,37.40413
439200967,2303,cafe,The Bean Scene Cafe,-122.03008,37.37634
566055916,2303,cafe,Coffee-n-More,-122.02975,37.37737
582457399,2501,supermarket,Target P-Fresh,-122.03244,37.37336
647650154,2303,cafe,Starbucks/ Target Cafe,-122.03254,37.37434
3369427811,2303,cafe,Philz Coffee,-122.03128,37.37738
4027092746,2303,cafe,Starbucks,-122.03159,37.37641
459380662,2303,cafe,Starbucks,-121.87301,37.3732
560525287,2303,cafe,It's A Grind,-121.91597,37.36512
563316581,2402,motel,E-Z 8 Motel San Jose I,-121.91078,37.36401
563318175,2303,cafe,Cafe Sun,-121.91295,37.36836
563335614,2303,cafe,Starbucks,-121.91721,37.37091
4350709404,2402,motel,E Z 8 Motel -San Jose II,-121.91868,37.37561
4350780176,2402,motel,Vagabond Inn San Jose,-121.91028,37.36305
5285058439,2303,cafe,TyLan Cafe,-121.87249,37.37504
5671323711,2303,cafe,Camille's Sidewalk Cafe,-121.91589,37.36551
343876694,2303,cafe,MoonBeans,-121.80243,37.23604
431891127,2501,supermarket,Walgreens,-121.82993,37.25025
431891129,2501,supermarket,Lucky,-121.82926,37.25033
1161981912,2501,supermarket,FoodMaxx,-121.79828,37.2553
1626101710,2303,cafe,Eric's Deli Cafe,-121.80436,37.24914
1744636503,2501,supermarket,Mercado California,-121.80776,37.25929
2607378267,2501,supermarket,Nob Hill,-121.83231,37.23765
2699785002,2303,cafe,Starbucks,-121.83095,37.23812
3921116036,2303,cafe,Starbucks,-121.80314,37.24865
4295465790,2501,supermarket,Express Market,-121.83125,37.23595
5406084615,2303,cafe,Katea,-121.80213,37.24776
5406084617,2303,cafe,Sharetea,-121.80515,37.2511
6522609857,2303,cafe,Trine’s Cafe,-121.80767,37.25949
358762951,2082,school,Cambrian School,-121.93662,37.27272
358767121,2082,school,Hammer School,-121.88761,37.25687
358772402,2082,school,Parker School,-121.9319,37.25494
358774152,2082,school,Saint Frances Cabrini School,-121.93625,37.26113
358774754,2082,school,Sartorette Elementary School,-121.90996,37.26022
358838614,2082,school,Almaden Elementary School,-121.88437,37.25152
461671351,2501,supermarket,Lunardi's,-121.89733,37.25655
506819212,2303,cafe,Starbucks,-121.89318,37.2748
1053626257,2303,cafe,Starbucks,-121.88853,37.24582
1155857946,2303,cafe,Starbucks,-121.91881,37.26322
1187467599,2303,cafe,Starbucks,-121.92266,37.2756
1925608546,2501,supermarket,Target,-121.91877,37.26508
1925610616,2501,supermarket,Grocery Outlet,-121.90729,37.27079
1925619588,2501,supermarket,Zanotto's,-121.89238,37.27532
1925626241,2501,supermarket,Lucky,-121.93257,37.2629
1931723146,2501,supermarket,Smart & Final,-121.91631,37.26482
1931736081,2501,supermarket,International Food Bazaar,-121.933,37.27211
2028393608,2303,cafe,Manley's Donuts,-121.90384,37.23286
2068009989,2501,supermarket,Lucky,-121.88575,37.22907
2296215344,2303,cafe,Coffee Net,-121.89695,37.25453
3463502783,2082,school,Carden Academy,-121.89786,37.24954
3463502784,2082,school,AppleSeed Almaden Montessori School,-121.89738,37.24909
4004340905,2303,cafe,Blvd Coffee,-121.88469,37.23029
4060922217,2303,cafe,Starbucks,-121.91463,37.23601
4511551061,2083,kindergarten,Explorer Preschool,-121.89712,37.27588
5821093918,2303,cafe,Cafetorium,-121.92152,37.24207
6277597582,2501,supermarket,Armentas Market,-121.93338,37.27449
6286734901,2303,cafe,Starbucks,-121.9317,37.24189
1048792178,2303,cafe,Starbucks,-121.86183,37.21982
1048792302,2303,cafe,Posh Bagels,-121.86192,37.21985
2091189234,2303,cafe,Maple Leaf Donuts,-121.86229,37.22025
314536207,2402,motel,Forest Park Inn,-121.57042,37.0216
340314337,2303,cafe,Super Donut,-121.57638,37.01988
1113795573,2501,supermarket,Kachy Produce,-121.57696,37.02256
1344005810,2402,motel,Budget Motel,-121.57873,37.02606
1509456703,2303,cafe,Auntie Anne's Soft Pretzels,-121.56368,37.02532
2572548874,2303,cafe,Erik's Deli,-121.56008,37.02075
4078079913,2402,motel,Ramada Limited Gilroy,-121.57003,37.02058
358768067,2082,school,Inverness School,-122.01996,37.34189
957085286,2303,cafe,Bagel Street Cafe,-122.03269,37.33152
1704948708,2504,mall,Cupertino Village,-122.01539,37.33618
2180877691,2303,cafe,Caffè Macs,-122.02902,37.33245
2418420316,2501,supermarket,99 Ranch,-122.01533,37.33674
2760019613,2303,cafe,Starbucks,-122.01473,37.3372
2856527717,2501,supermarket,Safeway,-122.03475,37.33636
2856527718,2303,cafe,Starbucks,-122.03501,37.33638
3562593040,2303,cafe,Fantasia Coffee & Tea,-122.01587,37.33599
3807526196,2303,cafe,Starbucks,-122.03646,37.33679
3807526205,2303,cafe,Tea Era,-122.04031,37.33715
3815032269,2303,cafe,TenRen's Tea and Ginseng,-122.01491,37.33567
3815032287,2303,cafe,Happy Lemon,-122.01514,37.33623
6117580047,2303,cafe,Cafe,-122.00537,37.3326
358766324,2082,school,Redwood Middle School,-122.01505,37.26539
358776601,2082,school,Stichter School,-122.01051,37.29744
435104547,2501,supermarket,Marukai,-122.01855,37.32188
2011558989,2303,cafe,Roasted Coffee Bean,-122.0067,37.32276
2131880791,2303,cafe,Starbucks,-121.99998,37.28013
2138477713,2501,supermarket,Gene's Fine Foods,-122.00042,37.27953
2299920951,2303,cafe,Starbucks,-122.01198,37.30976
2622899127,2303,cafe,verde,-122.01672,37.32232
2629332047,2303,cafe,Beija Flor,-122.01789,37.3225
3710129262,2303,cafe,Tpumps,-122.0227,37.32322
3958776504,2303,cafe,Starbucks,-122.01524,37.32472
3977017757,2303,cafe,Tea Top,-122.01259,37.30874
4465638762,2303,cafe,Tea Chansii,-122.01121,37.32449
5233334640,2303,cafe,Cafe LaTTea,-122.01226,37.32325
358795559,2082,school,Daves Avenue Elementary School,-121.98077,37.24007
357522348,2501,supermarket,Trader Joe's,-121.93258,37.28837
357524353,2501,supermarket,Whole Foods Market,-121.93041,37.29296
358838590,2082,school,Old Orchard Elementary School,-121.95968,37.28661
358838611,2082,school,West Valley Elementary School,-121.95885,37.28522
358857397,2082,school,Veritas Christian Academy,-121.95737,37.29278
1079536705,2303,cafe,House of Bagels,-121.93128,37.29395
1145574420,2303,cafe,Orchard Valley Coffee,-121.94373,37.28716
1145574478,2303,cafe,Starbucks,-121.94499,37.28717
1155855597,2303,cafe,Starbucks,-121.9304,37.29281
1187479322,2303,cafe,Starbucks,-121.93092,37.29467
2494529556,2303,cafe,Spread,-121.9468,37.28722
2629448204,2303,cafe,Coffee Society,-121.93418,37.28787
4709221189,2501,supermarket,dd's Discounts,-121.9229,37.30503
4878855138,2083,kindergarten,Action Day Primary Plus,-121.94816,37.31539
6307708477,2303,cafe,Barefoot Coffee,-121.93204,37.29086
1234939398,2303,cafe,Starbucks,-121.77508,37.23221
1234939402,2501,supermarket,Lucky,-121.77446,37.23275
4796196522,2084,college,Carrington College San Jose,-121.77668,37.24838
5172034722,2303,cafe,Baskin robbins,-121.77534,37.2278
358774340,2082,school,Saint Marys School,-121.98412,37.22383
598640976,2303,cafe,Los Gatos Roasting Company,-121.98305,37.22199
1169483512,2501,supermarket,Walgreens,-121.98133,37.2303
1169483516,2303,cafe,Starbucks,-121.97973,37.23031
2382902269,2303,cafe,Dolce Spazio,-121.98217,37.22668
2637755079,2303,cafe,Amour,-121.98384,37.22302
2637755103,2303,cafe,Fleur de Cocoa,-121.98353,37.22373
2637755109,2303,cafe,Gilley's,-121.98341,37.22393
2637755110,2303,cafe,Great Bean Coffee,-121.98374,37.22321
2637755134,2303,cafe,Le Boulanger,-121.98337,37.22204
4296713383,2504,mall,Old Town Center,-121.98218,37.22291
4896284902,2012,community_centre,Los Gatos Saratoga Adult Recreation Center,-121.97765,37.22085
4896285245,2303,cafe,Cafe Dio,-121.97733,37.22127
4896285246,2012,community_centre,Los Gatos Masonic Temple,-121.97797,37.22138
4896285247,2012,community_centre,Los Gatos Saratoga Youth Recreation Center,-121.97839,37.22148
4896285248,2012,community_centre,Los Gatos Saratoga Recreation Department,-121.9785,37.22145
4908231767,2083,kindergarten,Sunday School,-121.97644,37.22052
4919874017,2303,cafe,Purple Onion Cafe,-121.9808,37.22117
6625305331,2501,supermarket,Safeway,-121.97908,37.23142
1406268248,2501,supermarket,Marina Market,-121.83275,37.2788
2570859284,2303,cafe,Just Breakfast,-121.84896,37.29073
3624624017,2501,supermarket,Tân Lập Supermarket,-121.84743,37.3092
3678527432,2303,cafe,Meow!,-121.84039,37.2996
3678527444,2303,cafe,Mai Phương Café,-121.83865,37.29744
3679715100,2303,cafe,Heo May Cafe,-121.84764,37.30843
3679715105,2303,cafe,Dolce Espresso,-121.848,37.30906
3679715118,2303,cafe,Angel Coffee & Tea,-121.84927,37.31101
3901680957,2402,motel,Capitol Hill Inn,-121.84232,37.2856
4350668476,2402,motel,Executive Inn San Jose,-121.83799,37.28127
4350668477,2402,motel,Clarion Inn Silicon Valley,-121.84268,37.28586
4350668478,2402,motel,White House Inn,-121.84575,37.28857
4350668480,2402,motel,Rodeway Inn,-121.86262,37.30547
483072677,2082,school,Carolyn A. Clark Elementary School,-121.76964,37.32169
1162112481,2303,cafe,Starbucks,-121.78121,37.28815
2845366619,2082,school,Montessori Garden Academy Preschool & Day Care,-121.78304,37.31766
3373755207,2303,cafe,Evergreen Coffee Company,-121.77363,37.31424
3579138983,2501,supermarket,Lion Market,-121.82404,37.30055
3700417832,2501,supermarket,Lucky 7,-121.82799,37.32303
3700418046,2501,supermarket,Lion Supermarket,-121.82383,37.32115
3711317169,2501,supermarket,Sprouts Farmers Market,-121.81068,37.30941
3711324855,2501,supermarket,Maxim Market,-121.81115,37.30997
3711324869,2303,cafe,Happy Lemon Premier,-121.81293,37.30899
4485175930,2303,cafe,Trà,-121.81215,37.30665
4665108094,2303,cafe,Starbucks,-121.77191,37.30064
4665149990,2501,supermarket,New Seasons Market,-121.78081,37.28808
4665254389,2501,supermarket,Lucky,-121.79031,37.31531
5315598943,2501,supermarket,Walmart Neighborhood Market,-121.77307,37.31356
5526610633,2501,supermarket,Fresco Supermarket,-121.80997,37.32405
5529577071,2083,kindergarten,,-121.78801,37.30609
5661932721,2303,cafe,Mr. Chau Donuts,-121.81238,37.30648
6543419603,2303,cafe,Starbucks,-121.81194,37.33105
6868507878,2303,cafe,Starbucks,-121.8219,37.30022
6965784683,2501,supermarket,Manila Oriental Market,-121.79503,37.32419
358777481,2082,school,Tripp School,-121.87766,37.35096
1963557201,2501,supermarket,Nijiya Market,-121.89351,37.3491
3534520305,2303,cafe,@YC,-121.89374,37.35235
3567735107,2014,arts_centre,The Arsenal,-121.89401,37.34888
4885837994,2303,cafe,Sinceretea,-121.8919,37.35281
353696234,2504,mall,Westgate Mall,-121.98849,37.29224
358765133,2082,school,Easterbrook School,-121.98551,37.30633
358773733,2082,school,Easterbrook Discovery School,-121.98607,37.30383
358774640,2082,school,San Tomas School,-121.97635,37.26828
358778663,2082,school,Westmont High School,-121.98531,37.27137
429184954,2303,cafe,Peet's Coffee,-121.99205,37.29047
429187144,2501,supermarket,Trader Joe's,-121.9942,37.29306
509707333,2303,cafe,Starbucks,-121.98223,37.28565
619015092,2303,cafe,Chromatic Coffee,-121.99446,37.32389
671794971,2303,cafe,Delicious Donuts & Deli,-121.97635,37.288
1199518555,2303,cafe,Starbucks,-121.99411,37.32248
1812680429,2082,school,MACC Moreland Area Community Center,-121.98614,37.30633
2120292037,2303,cafe,Bijan,-121.9747,37.32
2120292072,2501,supermarket,Lion,-121.97459,37.31906
2162251896,2501,supermarket,Sprouts Farmers Market,-121.99237,37.29272
2162260770,2303,cafe,Starbucks,-121.98863,37.29268
2162262736,2501,supermarket,Nob Hill,-121.9786,37.28513
2162281152,2501,supermarket,Smart & Final,-121.99432,37.29359
2570745260,2303,cafe,Dolce Bella,-121.99593,37.29348
2655263941,2501,supermarket,Mitsuwa,-121.97782,37.31491
2894793605,2501,supermarket,Walmart Neighborhood Market,-121.97318,37.32167
3659623886,2303,cafe,Starbucks,-121.9731,37.31993
4685660493,2303,cafe,Starbucks,-121.97793,37.30868
4685660792,2501,supermarket,Lakshmi Bazaar,-121.99495,37.30889
4706077390,2303,cafe,Rose Cafe & Donuts,-121.97706,37.30834
4770055625,2501,supermarket,Las Palmas,-121.97799,37.30555
4770074021,2501,supermarket,Slavic Shop,-121.97736,37.30606
5074801664,2082,school,The Harker School - Upper School,-121.97375,37.31832
6926714151,2303,cafe,Voyager Craft Coffee,-121.97241,37.3236
358776797,2082,school,Summit School,-121.96718,37.14272
3559807117,2303,cafe,Towers Cafe,-121.89432,37.33782
3634866137,2303,cafe,One Tea,-121.88565,37.33873
4880523231,2083,kindergarten,Little Einstein’s Montessori Preschool,-121.88618,37.33875
5681157313,2303,cafe,KJ’s Cafe,-121.88543,37.33786
6452644729,2012,community_centre,San José Bike Clinic,-121.88822,37.33912
331094205,2303,cafe,Starbucks,-121.66433,37.14391
356611741,2303,cafe,Peet's Coffee,-121.65644,37.15097
511124252,2303,cafe,Starbucks,-121.6509,37.15572
315684346,2303,cafe,Starbucks,-121.55119,37.00243
316567102,2402,motel,Garlic Farm,-121.55487,36.984
319636034,2303,cafe,O.D.'s Kitchen,-121.56885,37.00805
319852929,2303,cafe,Cafe 152,-121.57621,37.01393
332111124,2303,cafe,Gilroy Donut House,-121.58229,37.01376
332111181,2303,cafe,Starbucks,-121.58588,37.01435
332111900,2501,supermarket,Cardenas,-121.58306,37.0144
332112939,2501,supermarket,Nob Hill,-121.58508,37.0144
332113059,2303,cafe,House of Bagels,-121.58577,37.01435
334793174,2303,cafe,5th Street Coffee & Roasting Co.,-121.56965,37.00846
358766561,2082,school,Glen View Elementary School,-121.57451,37.00045
358774337,2082,school,Saint Marys School,-121.57384,37.01455
358817169,2082,school,,-121.55466,36.94801
358817176,2082,school,,-121.53494,36.96662
358839289,2082,school,Gateway School,-121.57244,37.00078
382382199,2014,arts_centre,,-121.56903,36.97341
582550236,2303,cafe,First Street Coffee Exchange,-121.59428,37.01392
1072154869,2014,arts_centre,Dabble Arts Center,-121.57052,37.0115
1199539316,2501,supermarket,Super Save Market,-121.57507,37.01426
1347165387,2303,cafe,Vida Con Nutrition,-121.56868,37.00736
1616168686,2082,school,Gilroy Prep School,-121.56723,37.01505
1816505667,2501,supermarket,Arteaga's,-121.55828,37.00039
2155052952,2402,motel,,-121.5557,36.9848
3773562653,2303,cafe,Togo's,-121.5952,37.01395
5183014228,2303,cafe,Garlic City Cafe,-121.56927,37.00773
358767208,2082,school,Harney School,-121.47216,37.40521
439234263,2303,cafe,Starbucks,-121.93265,37.3444
936102098,2303,cafe,Starbucks,-121.93678,37.34532
2011578329,2303,cafe,Donut Den,-121.94188,37.36609
2116907124,2082,school,Western Seminary - San Jose Campus,-121.93436,37.3516
2912323903,2303,cafe,Bagel Street Cafe,-121.92041,37.36906
3540148721,2303,cafe,Starbucks,-121.92209,37.35049
3548898922,2303,cafe,Starbucks,-121.93668,37.35212
3613960690,2303,cafe,Tea Plus,-121.93436,37.34497
3678037158,2303,cafe,Skinny Monkey Ice & Tea,-121.93318,37.34458
4407990424,2303,cafe,Peet's Coffee,-121.92404,37.36449
4407990433,2303,cafe,Starbucks,-121.9291,37.36909
4407990438,2303,cafe,First-Class,-121.92971,37.36939
4407990445,2303,cafe,Peet's Coffee,-121.92962,37.36931
4853674928,2303,cafe,Starbucks,-121.92583,37.36597
4853689257,2303,cafe,Peet's Coffee,-121.92496,37.36515
4886372572,2082,school,Rabbi Joseph and Rosalie Gitin Religious School,-121.92081,37.3402
4886372573,2083,kindergarten,Temple Emanu-El Preschool,-121.92068,37.34009
4971355325,2303,cafe,Starbucks,-121.93152,37.37082
358773208,2082,school,Rancho Milpitas Middle School,-121.87077,37.42391
358776798,2082,school,Summit School,-121.8694,37.42299
358791347,2082,school,Alexander Rose Elementary School,-121.87579,37.43299
358838402,2082,school,John Sinnott Elementary School,-121.86996,37.42299
358838409,2082,school,Majestic Way Elementary School,-121.85801,37.41049
358838417,2082,school,Ruskin Elementary School,-121.85662,37.40022
4591757038,2303,cafe,Starbucks,-121.8619,37.38727
5018469890,2501,supermarket,Lucky Supermarket,-121.87479,37.41828
5125211237,2501,supermarket,Luckys,-121.87359,37.39674
563155358,2501,supermarket,Safeway,-121.88765,37.33465
577406730,2303,cafe,Starbucks,-121.88841,37.33739
3217642893,2303,cafe,Starbucks,-121.89095,37.33264
3555373048,2303,cafe,City Bagels,-121.89103,37.33572
3630274647,2303,cafe,Whispers,-121.88655,37.33392
3634565757,2081,university,University of San Francisco San José Campus,-121.89066,37.33228
4765780810,2303,cafe,Thirst Tea,-121.88772,37.33321
4765780813,2303,cafe,Origins Juicery,-121.88846,37.33363
4789168521,2303,cafe,Crema Coffee Roasting Company,-121.88935,37.33371
4797429122,2303,cafe,Starbucks Coffee,-121.88736,37.33343
4833597321,2303,cafe,Amor Cafe & Tea,-121.88652,37.3354
4895055266,2303,cafe,On Fourth Café,-121.88545,37.33551
4901454609,2303,cafe,Social Policy,-121.88786,37.33289
5681157283,2303,cafe,Café Too,-121.89017,37.33344
5681157295,2303,cafe,The Tech Cafe,-121.88991,37.33142
6094050079,2303,cafe,CommonGrounds,-121.88888,37.33609
326725120,2303,cafe,Starbucks,-121.63915,37.13035
356614205,2303,cafe,88 Keys Cafe,-121.62923,37.13379
597930793,2303,cafe,Grinds Vines & Automobilia Café,-121.65302,37.12901
721776350,2501,supermarket,Morgan Hill Foods,-121.65971,37.12887
1506099723,2501,supermarket,Rocca's Market,-121.61101,37.08539
1808372880,2303,cafe,Starbucks,-121.64361,37.1125
3524713022,2303,cafe,Beach Hut Deli,-121.63783,37.11383
3582260198,2402,motel,Morgan Hill Inn,-121.64463,37.11634
3901681261,2082,school,Kumon,-121.64645,37.11722
4077146721,2303,cafe,Lombardo's Donuts,-121.65884,37.12858
4170124355,2303,cafe,Daily Bagel Cafe,-121.63881,37.11323
314819840,2012,community_centre,Hoover Community Center,-121.92418,37.33342
1561616296,2303,cafe,Starbucks,-121.94919,37.32095
1561616311,2303,cafe,Peet's Coffee and Tea,-121.94839,37.31932
1561616317,2303,cafe,Cocola Bakery & Cafe,-121.9481,37.32196
1814092133,2081,university,Five Branches University,-121.94781,37.31795
2108118539,2501,supermarket,The Olin Avenue Market,-121.94833,37.32064
2109337126,2303,cafe,Left Bank Brasserie,-121.9481,37.31978
3137935929,2303,cafe,Starbucks,-121.96607,37.32831
3137935930,2501,supermarket,Lucky,-121.96679,37.32918
3646555434,2303,cafe,Starbucks,-121.92409,37.3342
3700772607,2303,cafe,,-121.94416,37.32622
5680651599,2303,cafe,Coffee Factory,-121.96851,37.32403
303809258,2303,cafe,Printer's Cafe,-122.14427,37.42724
968281587,2303,cafe,Starbucks,-122.14408,37.42685
992088570,2303,cafe,Cafe Zombie,-122.14485,37.42599
1351775207,2082,school,Pilates Palo Alto,-122.14576,37.42656
6544351129,2501,supermarket,Khoury's Market,-122.14849,37.42672
353683257,2303,cafe,Peet's Coffee,-122.11325,37.4007
358764512,2082,school,De Anza School,-122.11719,37.43494
358772222,2082,school,Our Lady of the Rosary School,-122.1233,37.42688
358772998,2082,school,Portola School,-122.11024,37.39438
358858574,2081,university,Sofia University,-122.10931,37.43068
486624281,2303,cafe,Palo Alto Cafe,-122.12958,37.43394
1306297057,2014,arts_centre,ARTis ANiMA Studio of Fine Arts,-122.125,37.4141
1477387007,2082,school,International School of the Peninsula,-122.12313,37.42637
1613630880,2303,cafe,Peet's Coffee,-122.11049,37.41927
1740354019,2303,cafe,Starbucks,-122.12516,37.41307
1834844699,2303,cafe,Pearl Coffee and Tea,-122.10665,37.40293
1975982969,2303,cafe,Sweet Shop,-122.12185,37.39994
2051505803,2501,supermarket,Grocery Outlet,-122.12437,37.41878
2051505812,2303,cafe,Starbucks,-122.12492,37.41914
2300367852,2303,cafe,Starbucks,-122.11237,37.40273
2398606788,2501,supermarket,Piazza's Fine Foods,-122.10988,37.41875
2399562236,2082,school,Young Builders,-122.12903,37.4334
2619982716,2082,school,School for Independant Learning,-122.11404,37.3994
2637875968,2082,school,Education,-122.12905,37.41563
2697101133,2303,cafe,Deli and Cafe Pommard,-122.12296,37.4296
2697101167,2082,school,School of Rock,-122.12971,37.43398
4317774023,2501,supermarket,Sprouts Farmers Market,-122.11375,37.40278
4476066346,2303,cafe,Teaspoon,-122.11444,37.40124
4609012005,2303,cafe,Nektar Juice Bar,-122.1131,37.40147
4887044206,2501,supermarket,Mercado Marlen,-122.10643,37.40403
5215520011,2303,cafe,Teaspoon,-122.12941,37.43409
5731405441,2082,school,The Reading Clinic,-122.1131,37.40075
358765982,2082,school,Foothill College,-122.1288,37.36127
358773121,2082,school,Purissima School,-122.13496,37.35911
1770222913,2303,cafe,Peet's Coffee,-122.11795,37.37876
2619982655,2303,cafe,Tin Pot Creamery,-122.1182,37.37861
2619982697,2303,cafe,Red Berry Coffee Bar,-122.11472,37.37955
2641042494,2012,community_centre,Silicon Velley Meditation Center,-122.11893,37.37969
6755681653,2110,hospital,Sharp Fluidics,-122.12301,37.3753
922296124,2501,supermarket,Lucky,-121.85381,37.27606
1108467950,2501,supermarket,Trader Joe's,-121.87912,37.25162
1108467964,2303,cafe,Starbucks,-121.8793,37.25209
1155861474,2501,supermarket,Whole Foods Market,-121.87673,37.24935
1199539036,2303,cafe,Peet's Coffee,-121.87633,37.24987
1856977866,2303,cafe,Starbucks,-121.8659,37.25078
2107857671,2303,cafe,House of Bagels,-121.87925,37.25044
2571839574,2303,cafe,Denny's,-121.87106,37.25093
2572195811,2501,supermarket,Lucky,-121.85732,37.24926
2730490387,2083,kindergarten,"Kids Copia Preschool, Infant, After-School Program",-121.86501,37.26187
3157261389,2303,cafe,Starbucks,-121.85758,37.27486
4289326624,2501,supermarket,Sprouts Farmers Market,-121.87829,37.26197
4293813390,2303,cafe,TLeaf Teapresso,-121.85791,37.24856
4293847889,2303,cafe,Starbucks,-121.85788,37.24911
4295519591,2303,cafe,Hubs Coffee,-121.84434,37.25009
4308078490,2303,cafe,Starbucks,-121.87698,37.25302
4868754887,2303,cafe,Starbucks,-121.86257,37.25125
1345335449,2303,cafe,The Coffee Cup,-121.82801,37.38168
4103619352,2303,cafe,Starbucks,-121.82805,37.3661
358762754,2082,school,William Burnet Elementary School,-121.88107,37.44216
358764404,2082,school,Curtner Elementary School,-121.91301,37.44077
358773223,2082,school,Robert Randall Elementary School,-121.88162,37.42966
358858060,2082,school,Silicon Valley University,-121.89026,37.39797
358858239,2082,school,Heald College - San Jose,-121.89573,37.41153
491864092,2303,cafe,Starbucks,-121.92369,37.39813
617019748,2303,cafe,Starbucks,-121.89929,37.41612
760160520,2303,cafe,Beryl's Place,-121.9283,37.395
1700616945,2501,supermarket,Ranch 99 Grocery,-121.9169,37.42275
1700633019,2303,cafe,Juice City,-121.90308,37.44663
1700633025,2501,supermarket,Smart and Final,-121.90251,37.44764
1700633026,2303,cafe,Starbucks,-121.9032,37.44663
2153998271,2303,cafe,Starbucks,-121.92161,37.42166
3330495616,2303,cafe,Starbucks,-121.92093,37.42829
4350786877,2402,motel,Heritage Inn,-121.91231,37.42605
4350786878,2402,motel,Days Inn San Jose Milpitas,-121.91135,37.426
4350786879,2402,motel,Baymont Inn and Suites Milpitas/San Jose,-121.90572,37.42961
4350786880,2402,motel,Americas Best Value Inn-Milpitas/Silicon Valley,-121.90564,37.42349
4350786882,2402,motel,Quality Inn Silicon Valley,-121.90437,37.40398
5080242674,2501,supermarket,Save Mart,-121.91153,37.42863
5121029938,2303,cafe,Starbucks,-121.93314,37.40304
5276559821,2303,cafe,Starbucks,-121.92147,37.45165
5659970674,2303,cafe,The Grind,-121.89023,37.39661
6681775713,2303,cafe,Peet's Coffee,-121.89809,37.4345
6681812689,2501,supermarket,Marina Grocery,-121.90132,37.43311
6681831194,2303,cafe,Starbucks,-121.9004,37.43479
6681844680,2110,hospital,Calaveras Veterinary Clinic,-121.90913,37.42859
6681849994,2303,cafe,Starbucks,-121.89788,37.4348
6682078844,2303,cafe,Erik's DeliCafé,-121.89894,37.43531
6682154727,2501,supermarket,Ocean Supermarket,-121.88319,37.43537
6683023824,2303,cafe,Raw Sugar,-121.91314,37.42613
6700931882,2303,cafe,Starbucks,-121.88579,37.43557
6701008117,2110,hospital,Pacific Medical Center,-121.88681,37.43594
2510589067,2501,supermarket,Luck 7 Supermercado,-121.84811,37.34561
3563994297,2303,cafe,Starbucks,-121.84464,37.37413
3563994303,2303,cafe,Starbucks,-121.84232,37.37136
4591774146,2303,cafe,Tapioca Express,-121.8507,37.36531
5125341638,2501,supermarket,Mi Pueblo,-121.84246,37.37161
5761809857,2082,school,KIPP San Jose Collegiate,-121.8595,37.36986
6040742862,2303,cafe,A Bite of Wyoming,-121.84536,37.35793
6040754436,2110,hospital,Regional Hospital,-121.84921,37.36252
6383660412,2501,supermarket,Mi Ranchito Produce,-121.8452,37.35817
6383699035,2501,supermarket,Chavez Supermarket,-121.84974,37.36739
2884597670,2083,kindergarten,Downtown Children Center (PACCC-DCC),-122.15922,37.44705
5417603220,2303,cafe,Red Brick Cafe,-122.1624,37.44529
5446895128,2303,cafe,Sharetea,-122.16093,37.44532
5461252355,2303,cafe,Joe & The Juice,-122.15888,37.44848
281870028,2303,cafe,CoHo,-122.17083,37.42408
287462718,2303,cafe,Bytes Cafe,-122.17355,37.42936
3355037887,2303,cafe,Coupa Cafe,-122.17559,37.42833
4742742429,2303,cafe,Stanford Bookstore Café,-122.1688,37.42502
5555953390,2303,cafe,Starbucks,-122.17083,37.42435
5753077921,2303,cafe,Coupa Cafe,-122.16215,37.42802
6920764824,2084,college,Stanford Institute for Economic Policy Research,-122.16551,37.42918
2157545925,2303,cafe,Starbucks,-121.92795,37.38536
2235254641,2501,supermarket,99 Ranch Market,-121.8844,37.38633
3075986785,2303,cafe,Bambu Coffee & Snacks,-121.88479,37.38647
4766343040,2303,cafe,Starbucks,-121.89445,37.38327
5078370921,2303,cafe,Sharetea,-121.88285,37.38751
5773786205,2303,cafe,Gong Cha,-121.88768,37.3873
5780848800,2501,supermarket,H Mart,-121.89452,37.38383
6195959677,2012,community_centre,Orchard Bruins Event Center,-121.90122,37.38955
6553770887,2303,cafe,Specialty's Cafe,-121.92545,37.38554
358769582,2082,school,Llagas School,-121.7469,37.14992
358774343,2082,school,Saint Marys School,-121.8819,37.32939
2302042015,2303,cafe,La Lune Sucree,-121.88509,37.33363
2620441931,2501,supermarket,Grocery Outlet,-121.884,37.3383
3151883654,2303,cafe,Philz Coffee,-121.88499,37.33363
3622610707,2303,cafe,Vegan Donut & Cafe,-121.88132,37.34077
3624970701,2084,college,Bay Area College of Nursing,-121.87589,37.34286
3643577900,2501,supermarket,Đại Thành Supermarket,-121.88452,37.33032
4093397387,2402,motel,Townhouse Motel,-121.88434,37.32934
4093398686,2402,motel,City Center Motel,-121.88332,37.32784
4093403691,2082,school,Lincoln Law School,-121.88492,37.3309
4183980016,2303,cafe,Gong Cha,-121.88469,37.33365
4883501825,2084,college,TTL College,-121.88359,37.33991
5681157286,2303,cafe,Cinnaholic San Jose,-121.88493,37.33277
5681157314,2303,cafe,Recovery Café San José,-121.88506,37.33699
6399819660,2303,cafe,The Market (Peets Coffee),-121.88175,37.33367
6399829610,2303,cafe,Starbucks,-121.88006,37.3367
6499035246,2303,cafe,Academic Coffee,-121.88409,37.32912
3213621500,2501,supermarket,Lion Supermarket,-121.91025,37.4565
358760668,2082,school,Agnew School,-121.96468,37.39188
923740504,2303,cafe,Starbucks,-121.94177,37.40642
1255655331,2303,cafe,Peet's Coffee,-121.94599,37.39441
1704927437,2303,cafe,Starbucks,-121.96095,37.38622
2181512494,2303,cafe,"Cisco Systems Cafeteria, Building J",-121.95365,37.41204
4173741395,2303,cafe,Mikayla's Cafe,-121.96335,37.40817
4173741397,2303,cafe,,-121.96348,37.40812
4247809499,2303,cafe,Prolific Oven Bakery & Cafe,-121.9462,37.39474
5008481801,2303,cafe,Starbucks,-121.93997,37.40202
5368495041,2303,cafe,Starbucks,-121.95569,37.41807
5732773895,2303,cafe,Coffee Bean & Tea Leaf,-121.955,37.41693
6781946686,2303,cafe,Starbucks,-121.97422,37.39645
6859149490,2303,cafe,Fantasia Tea Cafe,-121.94653,37.39536
6903107840,2303,cafe,Starbucks,-121.96047,37.38734
445291449,2501,supermarket,Lion Market,-121.85385,37.33153
1280967736,2501,supermarket,Cardenas,-121.84319,37.34136
3560256373,2501,supermarket,Maxim,-121.85619,37.33424
3560256377,2303,cafe,Lẩu Dê Bình Minh,-121.85696,37.33216
3560256861,2501,supermarket,,-121.85246,37.33294
3700431844,2303,cafe,Bobo Drinks,-121.85909,37.32969
5443339829,2303,cafe,Starbucks,-121.84224,37.33942
5660971992,2303,cafe,,-121.85775,37.33159
6435975128,2303,cafe,T4 San Jose,-121.85794,37.33207
3537287697,2303,cafe,Starbucks,-121.89285,37.33534
5675220171,2082,school,Cinta Aveda Institute San Jose,-121.89418,37.33727
5681157284,2082,school,Paul Mitchell The School,-121.89201,37.3322
506819349,2303,cafe,Starbucks,-121.91317,37.29281
961807258,2303,cafe,Toast,-121.89182,37.30663
2388067817,2501,supermarket,FoodMax,-121.9164,37.31756
2669556285,2303,cafe,Peet's Coffee,-121.90036,37.30776
3539030768,2303,cafe,Elva's Coffee Stop,-121.88795,37.29061
3778988260,2303,cafe,Top Nosh,-121.90045,37.30724
4350668481,2402,motel,Three A Motel,-121.87197,37.314
4350668483,2402,motel,Travelers Rest Motel,-121.87504,37.31699
4350668484,2402,motel,Hotel Elan,-121.87649,37.31848
4424116803,2501,supermarket,Arteagas Food Center,-121.90408,37.3123
4714747788,2501,supermarket,Safeway,-121.89071,37.30594
4883487534,2082,school,DCP El Primero High School,-121.87306,37.31621
4883487535,2082,school,DCP El Camino Middle School,-121.87248,37.31648
5315598110,2501,supermarket,Walmart Neighborhood Market,-121.8711,37.31621
5348535014,2303,cafe,Starbucks,-121.91412,37.30409
347433822,2303,cafe,Starbucks,-121.91402,37.32326
373374203,2501,supermarket,Trader Joe’s San Jose Coleman Avenue,-121.90951,37.34102
577302799,2303,cafe,Starbucks,-121.9126,37.33232
2398941211,2303,cafe,Peet’s Coffee,-121.913,37.33203
3458835630,2303,cafe,,-121.90448,37.33215
3478495355,2082,school,Saint Leo the Great School,-121.91078,37.3291
3602707769,2303,cafe,Starbucks,-121.91161,37.34141
3608158859,2303,cafe,HannaH,-121.90549,37.33156
3616819753,2402,motel,Alameda Motel,-121.91071,37.33106
3624657294,2303,cafe,Crema Coffee Roasting Company,-121.91177,37.33177
4880873532,2083,kindergarten,Yeshiva Preschool of Silicon Valley,-121.90631,37.33338
4886343819,2083,kindergarten,Little Lions Preschool,-121.91102,37.32926
6300726343,2303,cafe,Happy Lemon,-121.90638,37.34051
339780971,2303,cafe,Peet's Coffee,-122.15927,37.43806
412330517,2303,cafe,Mayfield Bakery & Cafe,-122.15878,37.43821
462479994,2303,cafe,Calafia,-122.15845,37.4383
462480025,2303,cafe,Douce France,-122.15886,37.43894
315422020,2405,hostel,Welch Hurst Youth Hostel,-122.07261,37.23946
477042434,2303,cafe,Big Basin Cafe,-122.03355,37.25795
477071895,2402,motel,The Inn at Saratoga,-122.03444,37.25783
2081698030,2303,cafe,Starbucks,-122.03225,37.2587
2637692727,2303,cafe,Yolatea,-122.03358,37.25753
6448767099,2303,cafe,Sue's Gallery Cafe,-122.03754,37.25578
4093398681,2303,cafe,Voltaire Coffee House,-121.88687,37.32992
4392901231,2303,cafe,Caffe Frascati,-121.88706,37.33115
4974548840,2303,cafe,Peet’s Coffee,-121.89037,37.32871
5681157285,2303,cafe,Corner Market Kitchen,-121.88814,37.33021
358764192,2082,school,Country Day School (historic),-121.9519,37.22717
1077855956,2303,cafe,Shmoozers,-121.96196,37.25247
1077867862,2303,cafe,Starbucks,-121.96445,37.23566
1078357957,2501,supermarket,Trader Joe's,-121.95768,37.24458
1161594401,2303,cafe,Starbucks,-121.94623,37.27069
1219353018,2303,cafe,Peet's Coffee,-121.961,37.23491
1680552195,2501,supermarket,Lunardi's,-121.9626,37.23449
1680552206,2501,supermarket,Whole Foods Market,-121.96166,37.23608
2494393481,2501,supermarket,Jiffy Market,-121.96096,37.24093
2494395228,2303,cafe,Lou's Coffee Shop,-121.96106,37.24066
2570264373,2303,cafe,Blvd Cafe,-121.96057,37.2435
3272065314,2303,cafe,Los Gatos Cafe,-121.95935,37.2406
3272065315,2501,supermarket,Nob Hill Foods,-121.95973,37.24034
3403086196,2082,school,Pat Miller Music School,-121.96254,37.26255
3403138795,2303,cafe,Purple Onion Cafe,-121.96262,37.26221
3403139093,2082,school,Martial Arts,-121.96251,37.26243
3622682435,2303,cafe,Philz Coffee,-121.9635,37.23595
4139637684,2303,cafe,Starbucks,-121.95252,37.25372
4279519150,2013,nursing_home,Woodlands Healthcare Center,-121.95252,37.25137
4962827025,2083,kindergarten,Mariposa Montessori,-121.96434,37.22805
6565280599,2012,community_centre,Addison Penzak Jeish Community Center,-121.96145,37.25329
6565280600,2082,school,Yavneh Day school,-121.96154,37.25312
386843084,2501,supermarket,Pass Farmers Market,-121.41958,36.97099
917877733,2402,motel,Casa de Fruta Motel,-121.37916,36.99295
358760684,2082,school,Air Point School,-121.84872,37.44846
358760625,2082,school,Adams School,-121.65661,37.0305
5183013520,2303,cafe,Sugar Plum Farm Cafe,-121.62768,37.00492
5183014022,2303,cafe,Got Cha!,-121.62688,37.00485
5183014023,2303,cafe,Villa Pasta & Pizza,-121.62758,37.00405
5183014025,2303,cafe,Skeel's Funnel Cake,-121.63019,37.0051
358767186,2082,school,Harker School,-122.14524,37.44716
3299432565,2303,cafe,Starbucks,-122.12623,37.4479
345476438,2303,cafe,Starbucks,-122.09642,37.42181
529144378,2303,cafe,Starbucks,-122.07768,37.41576
1388187054,2082,school,Art School of San Francisco Bay,-122.09329,37.41413
1643834661,2303,cafe,Starbucks,-122.09434,37.41146
2095327716,2303,cafe,Plaza deli,-122.09989,37.42972
2398606827,2082,school,Sequoia Academy,-122.10151,37.42022
3195103136,2303,cafe,Yoshka's,-122.08427,37.42171
3195103137,2303,cafe,Charlie's cafe,-122.08394,37.42228
3195103138,2303,cafe,Cafe Moma,-122.08233,37.42037
3544924415,2303,cafe,Cloud Cafe,-122.07754,37.41443
4583807295,2303,cafe,Bridget's Market,-122.09049,37.42176
4583807296,2303,cafe,Heritage,-122.0875,37.42204
4583807297,2303,cafe,Cloud Cafe,-122.0874,37.42301
4583807298,2303,cafe,Big Table,-122.08751,37.42273
4583807299,2303,cafe,WAN,-122.08852,37.42263
4583807300,2303,cafe,Costa,-122.08351,37.42001
4583807301,2303,cafe,Threads,-122.08105,37.41934
4583807308,2303,cafe,Masa,-122.07988,37.41782
4583807309,2303,cafe,MiXiT Charleston,-122.07687,37.42003
4583807312,2303,cafe,Backyard,-122.07712,37.42124
4583807313,2303,cafe,Pixel,-122.07564,37.42235
5110357106,2501,supermarket,Safeway,-122.09447,37.41119
1742329171,2081,university,Singularity University,-122.05838,37.41064
4053675918,2303,cafe,,-122.07145,37.41172
4583807310,2303,cafe,KitchenSync,-122.07304,37.41823
4583807311,2303,cafe,Fishfood,-122.07039,37.41907
4583807314,2303,cafe,Maverick,-122.07106,37.42606
4583807315,2303,cafe,Beta C,-122.07211,37.42598
4583807316,2303,cafe,The Lunch Box,-122.07209,37.42681
4583807317,2303,cafe,Badaal,-122.07127,37.42694
358770852,2082,school,Miramonte School,-122.08718,37.39716
358838148,2082,school,Canterbury Christian School,-122.0983,37.38327
433566474,2303,cafe,Starbucks,-122.09471,37.39083
943845219,2082,school,GanTorah Preschool,-122.09946,37.39592
4887044373,2083,kindergarten,KinderCare Mountain View,-122.10106,37.39478
5031346686,2012,community_centre,The View Teen Center,-122.09286,37.39826
1781829281,2007,library,Lane Medical Library,-122.1755,37.43273
4732910085,2007,library,Robin Li and Melissa Ma Science Library,-122.17142,37.43069
3240361476,2005,post_office,The UPS Store,-122.0523,37.37362
5587462376,2005,post_office,US Post Office,-122.05135,37.35438
313261447,2005,post_office,,-122.0864,37.35438
345438498,2002,fire_station,Loyola Fire Station,-122.09334,37.3576
2619982748,2005,post_office,The UPS Store,-122.09811,37.36163
4608063472,2007,library,Columbia Neighborhood center library,-122.01875,37.39494
4909658725,2001,police,Community Policing Center,-121.97662,37.42637
2663431877,2005,post_office,The UPS Store,-122.006,37.35141
358838660,2005,post_office,Santa Clara Post Office,-121.94718,37.34855
6532925180,2005,post_office,PostalAnnex,-121.96116,37.35024
368166733,2099,public_building,Santa Clara Unified School District Office,-121.99524,37.3555
580360959,2002,fire_station,,-121.99245,37.34518
2388972240,2005,post_office,USPS Post Office,-121.99439,37.34595
1783200420,2005,post_office,The UPS Store,-122.08293,37.3878
2157969014,2005,post_office,Mountain View Hope Street Post Office,-122.07778,37.3931
4884928806,2001,police,Mountain View Police Department,-122.08165,37.39561
4884928807,2002,fire_station,Mountain View Fire Department,-122.08121,37.39564
2309426541,2001,police,,-122.04522,37.32091
5762636708,2002,fire_station,Cal Fire Stevens Creek Fire Station 23,-122.0791,37.28719
314151192,2005,post_office,,-122.08823,37.37172
2403126776,2005,post_office,US Post Office,-122.07601,37.37839
2619982673,2005,post_office,Mail All Center,-122.08782,37.373
5975640248,2007,library,Covington School Library,-122.1068,37.37248
933757012,2001,police,Mission College Police,-121.98139,37.39235
988279570,2005,post_office,All Service Centre,-121.99515,37.38336
2297714492,2005,post_office,FedEx Office,-121.98445,37.38874
2607395542,2005,post_office,FedEx Office,-121.99525,37.38298
3655078965,2005,post_office,The UPS Store,-121.97477,37.39034
3655078967,2005,post_office,The UPS Store,-121.97567,37.40443
343601217,2005,post_office,US Post Office,-122.03221,37.37771
368170147,2007,library,Saint Thomas Episcopal Church Library,-122.04328,37.3776
368171168,2099,public_building,Sunnyvale Civic Center,-122.03818,37.37244
368168532,2002,fire_station,San Jose Fire Station 12,-121.83111,37.24194
368168645,2002,fire_station,San Jose Fire Station 18,-121.82889,37.27306
1446415972,2007,library,"Edenvale Branch, San Jose Public Library",-121.82094,37.26785
4367160189,2005,post_office,The UPS Store,-121.79773,37.25386
358838825,2005,post_office,Cambrian Park Station San Jose Post Office,-121.91522,37.26531
368168537,2002,fire_station,San Jose Fire Station 9,-121.9163,37.26343
368170144,2007,library,Cambrian Branch San Jose Public Library,-121.91499,37.26442
2070192197,2005,post_office,The UPS Store,-121.88469,37.22967
4876323121,2005,post_office,The UPS Store,-121.93397,37.26282
5821093916,2007,library,Leigh Library,-121.92152,37.2424
5821249648,2007,library,Ida Price M.S. Library,-121.92574,37.27327
358839117,2005,post_office,Almaden Valley Station San Jose Post Office,-121.8625,37.21881
358839422,2005,post_office,New Almaden Post Office,-121.82273,37.17578
368168639,2002,fire_station,San Jose Fire Station 28,-121.82472,37.19952
368168641,2002,fire_station,San Jose Fire Station 22,-121.86768,37.22206
368170115,2007,library,Almaden Branch San Jose Public Library,-121.86889,37.22131
812849107,2007,library,,-121.60203,37.03733
358838486,2005,post_office,Saratoga Post Office,-122.01519,37.26629
368168551,2002,fire_station,West Valley Fire Station,-122.01947,37.28266
368172495,2008,town_hall,Saratoga City Hall,-122.01472,37.2675
3513424193,2002,fire_station,Quito Fire Station,-122.00229,37.24122
368168552,2002,fire_station,Campbell Fire Station,-121.93584,37.28546
368170137,2007,library,Islamic Library and Resource Center,-121.94801,37.29189
6307708478,2005,post_office,The UPS Store,-121.93203,37.29078
3911828059,2005,post_office,PostalAnnex,-121.77546,37.23073
358839370,2005,post_office,Los Gatos Main Post Office,-121.98432,37.2213
368171800,2008,town_hall,Monte Sereno City Hall,-121.98607,37.23244
368171802,2008,town_hall,Los Gatos City Hall,-121.97879,37.22056
472302986,2001,police,,-121.97882,37.22049
647699753,2002,fire_station,Los Gatos Fire Station,-121.97993,37.22685
1257135026,2007,library,California Province of the Society of Jesus Jesuit Center Library,-121.98216,37.2137
4908231765,2007,library,Reading Room,-121.97643,37.22062
6615573414,2005,post_office,The UPS Store,-121.98022,37.23161
3679715123,2005,post_office,,-121.85103,37.31164
368168535,2002,fire_station,San Jose Fire Station 11,-121.76389,37.29028
483074299,2002,fire_station,,-121.77445,37.31527
6341518291,2007,library,Evergreen Square library,-121.77435,37.31352
358838978,2005,post_office,Westgate Station San Jose Post Office,-121.97801,37.30133
368168650,2002,fire_station,San Jose Fire Station 14,-121.97984,37.30247
368170145,2007,library,West Valley Branch San Jose Public Library,-121.97885,37.30244
1077818343,2005,post_office,Redwood Estates,-121.98653,37.15842
4641748422,2007,library,Inez C. Jackson Historical Library,-121.88846,37.34345
300946538,2008,town_hall,Gilroy City Hall,-121.57253,37.00435
332494039,2001,police,Gilroy Police Station,-121.57349,37.00408
368170127,2007,library,Gavilan College Library,-121.56915,36.97387
993180206,2005,post_office,Fed Ex Center,-121.58007,37.01326
1249142264,2002,fire_station,Cal Fire Smith Creek Fire Station 12,-121.66915,37.32257
313267358,2002,fire_station,Fire Station # 9,-121.84325,37.39147
358838386,2005,post_office,Berryessa Station San Jose Post Office,-121.84718,37.39994
368168646,2002,fire_station,San Jose Fire Station 19,-121.84319,37.39144
886481223,2002,fire_station,,-121.84716,37.39934
3630274641,2005,post_office,Colonnade Station Post Office,-121.88544,37.33352
3630274649,2005,post_office,The UPS Store,-121.88712,37.33572
4881063480,2001,police,170 Suite,-121.88976,37.33608
4170062877,2005,post_office,The UPS Store,-121.64267,37.11202
4170124353,2005,post_office,PostalAnnex,-121.64041,37.11335
368170132,2007,library,Rosicrucian Order Research Library,-121.92283,37.33441
1723464800,2007,library,Christian Science Reading Room,-122.1452,37.42561
368170150,2007,library,Pacific Graduate School of Psychological Research Library,-122.10635,37.42966
2638611675,2005,post_office,Village Mail Center,-122.11519,37.40038
358838159,2005,post_office,Los Altos Post Office,-122.12015,37.38048
368167879,2002,fire_station,Los Altos Fire Station,-122.11367,37.38471
923288074,2001,police,Police Station,-122.1274,37.36188
2619982745,2005,post_office,The UPS Store,-122.11507,37.37905
2641042493,2005,post_office,Los Altos Mail Office,-122.11938,37.38012
2642087074,2005,post_office,,-122.11591,37.37856
358839182,2005,post_office,Blossom Hill Station San Jose Post Office,-121.84639,37.24888
3689919816,2005,post_office,Robertsville Post Office,-121.87905,37.26292
4295461194,2002,fire_station,,-121.8491,37.24322
368168633,2002,fire_station,San Jose Fire Station 29,-121.93375,37.40104
368168642,2002,fire_station,San Jose Fire Station 23,-121.87917,37.40167
368170148,2007,library,Milpitas Community Library,-121.89842,37.43343
368171163,2099,public_building,Milpitas Civic Center,-121.89801,37.43327
1700633023,2001,police,Milpitas Police,-121.91018,37.44931
1700633024,2007,library,Milpitas Public Library,-121.90703,37.4325
3631944449,2005,post_office,The Postal Stop,-121.90906,37.4279
6681775714,2005,post_office,The UPS Store,-121.89891,37.43524
368170459,2007,library,Center for Continuing Study of California Economy Library,-122.16052,37.44938
2512780031,2001,police,Palo Alto Police Department,-122.15957,37.44399
3445812317,2007,library,Branner Earth Sciences Library,-122.17264,37.42644
4768549821,2007,library,David Rumsey Map Center,-122.16778,37.42686
4846515988,2007,library,Robert Crown Law Library,-122.16764,37.42419
4892917223,2007,library,Stanford Geospatial Center,-122.17247,37.42641
5206903613,2007,library,Tanner Philosophy Library,-122.17123,37.42792
5555953384,2007,library,Mendenhall Library,-122.16932,37.42835
1700604299,2005,post_office,FedEx Office Print and Ship Center,-121.89383,37.38358
6177519993,2005,post_office,FedEx,-121.89526,37.38388
6536460667,2005,post_office,The UPS Store,-121.89738,37.3843
368171156,2099,public_building,Sanchez-South County Government Center,-121.60257,37.07393
1280580278,2007,library,,-121.60124,37.07842
5754996147,2007,library,,-121.60495,37.13801
2159765926,2002,fire_station,,-121.77933,37.05669
3413327062,2002,fire_station,,-121.79278,37.0845
368168543,2002,fire_station,San Jose Fire Station 3,-121.87833,37.32333
3642759857,2001,police,University Police Department,-121.87992,37.33313
631343897,2001,police,Santa Clara Police,-121.94768,37.39539
6859149487,2005,post_office,PostalAnnex,-121.94662,37.3948
368168652,2002,fire_station,San Jose Fire Station 16,-121.83184,37.32786
4642809825,2005,post_office,Kangaroo Pack & Ship,-121.85745,37.33161
4885818785,2001,police,Opsec Security Patrol,-121.85704,37.33383
358838664,2005,post_office,Station B San Jose Post Office,-121.90301,37.31105
368168540,2002,fire_station,San Jose Fire Station 6,-121.90389,37.30139
368170133,2007,library,Willow Glen Branch San Jose Public Library,-121.89988,37.3027
3778987367,2005,post_office,Garden Station,-121.90086,37.30706
2207554111,2005,post_office,FedEx Office,-121.90875,37.33187
3458890526,2005,post_office,The UPS Store,-121.91286,37.33266
3643659852,2001,police,Transit Police Bureau Substation,-121.90256,37.32913
6300727948,2005,post_office,FedEx ShipCenter,-121.90846,37.34016
1642124879,2005,post_office,The UPS Store,-122.16028,37.43855
464804696,2002,fire_station,Saratoga Fire Station,-122.03148,37.25918
2637692717,2005,post_office,The UPS Store,-122.03299,37.25849
4901268357,2005,post_office,The UPS Store,-121.88815,37.32992
358767845,2099,public_building,Houge Park Center,-121.94163,37.25689
358857281,2002,fire_station,McCormack Training Center,-121.95843,37.27361
368168550,2002,fire_station,Sunnyoaks Fire Station,-121.95845,37.27246
2494420134,2001,police,Los Gatos Police Department Operations Center,-121.96181,37.23739
2570305851,2005,post_office,FedEx Office,-121.96021,37.24291
3272065316,2005,post_office,PostalAnnex,-121.96048,37.24006
3513457593,2002,fire_station,Winchester Fire Station,-121.96771,37.25231
3704012660,2005,post_office,The UPS Store,-121.95798,37.24404
937396425,2099,public_building,Gift Shop,-121.38247,36.98793
937396441,2099,public_building,Fruit Stand,-121.38277,36.98786
3987066984,2002,fire_station,Pacheco Fire Station 31,-121.34696,37.01346
368170458,2007,library,First Congregational Church Library,-122.13361,37.44464
